Store Name,Store Number,Phone Number,Address,Url,Longitude,Latitude,City,State
Alabaster Promenade,null,12055641095,"100 S Colonial Dr. Suite 2350 Alabaster, Alabama 35007 US",https://locations.fivebelow.com/al/alabaster/100-s-colonial-dr,-86.80477209397785,33.22669761757409,alabaster,al
Albertville,null,12566661330,"Hwy 431 & North Carlisle St. Albertville, Alabama 35951 US",https://locations.fivebelow.com/al/albertville/hwy-431-&-north-carlisle-st,-86.20574546004511,34.27511647485005,albertville,al
Covington Mall,null,13342615178,"140 Covington Mall Drive Andalusia, Alabama 36420 US",https://locations.fivebelow.com/al/andalusia/140-covington-mall-drive,-86.49632147666792,31.316753936186828,andalusia,al
Athens Marketplace,null,12562853105,"1061 Kelli Drive Unit E Athens, Alabama 35613 US",https://locations.fivebelow.com/al/athens/1061-kelli-drive,-86.9363786,34.78325,athens,al
Tannehill Promenade,null,12052166926,"4921 Promenade Parkway Bessemer, Alabama 35022 US",https://locations.fivebelow.com/al/bessemer/4921-promenade-parkway,-86.9917713,33.3355181,bessemer,al
Cullman Shopping Center,null,12567365496,"1230 Cullman Shopping Ctr NW Cullman, Alabama 35055 US",https://locations.fivebelow.com/al/cullman/1230-cullman-shopping-ctr-nw,-86.8515326482057,34.18369138477791,cullman,al
Jubilee Square,null,12513165980,"6850-13 Highway 90 Daphne, Alabama 36526 US",https://locations.fivebelow.com/al/daphne/6850-13-highway-90,-87.90646091312817,30.652568074774795,daphne,al
The Crossings of Decatur,null,12563015402,"1241 Pointe Mallard Parkway Decatur, Alabama 35601 US",https://locations.fivebelow.com/al/decatur/1241-pointe-mallard-parkway,-86.97220940510181,34.558809265450684,decatur,al
Dothan,null,13347925144,"3500 Ross Clark Cir Suite 710 Dothan, Alabama 36303 US",https://locations.fivebelow.com/al/dothan/3500-ross-clark-cir,-85.42472093427,31.246033853943974,dothan,al
Baldwin Square,null,12513613150,"197 Baldwin Square I Fairhope, Alabama 36532 US",https://locations.fivebelow.com/al/fairhope/197-baldwin-square,-87.88555822514857,30.520680148599716,fairhope,al
Cox Creek Shopping Center,null,12567603589,"390 Cox Creek Parkway Florence, Alabama 35630 US",https://locations.fivebelow.com/al/florence/390-cox-creek-parkway,-87.63710564135283,34.84236185773595,florence,al
Riviera Square,null,12519430305,"2528 S. McKenzie Street Foley, Alabama 36535 US",https://locations.fivebelow.com/al/foley/2528-s-mckenzie-street,-87.6860733,30.3784942,foley,al
Fultondale Promenade,null,12058492035,"3453 Lowery Parkway Fultondale, Alabama 35068 US",https://locations.fivebelow.com/al/fultondale/3453-lowery-parkway,-86.80544838161467,33.60449121540174,fultondale,al
River Trace Center,null,12565430088,"526 Meighan Blvd East Gadsden, Alabama 35903 US",https://locations.fivebelow.com/al/gadsden/526-meighan-blvd-east,-85.984485,34.011087,gadsden,al
Jacksonville Crossing,null,12563888566,"1555 Pelham Rd S Suite C Jacksonville, Alabama 36265 US",https://locations.fivebelow.com/al/jacksonville/1555-pelham-rd-s,-85.76284203400647,33.791072870940525,jacksonville,al
Jasper Square,null,12055337567,"640 Hwy 78 E Jasper, Alabama 35501 US",https://locations.fivebelow.com/al/jasper/640-hwy-78-e,-87.26902629444271,33.8512306321953,jasper,al
EastChase Crossing,null,13342740178,"7670 East Chase Parkway Montgomery, Alabama 36117 US",https://locations.fivebelow.com/al/montgomery/7670-east-chase-parkway,-86.1590753,32.3600156,montgomery,al
Tiger Town,null,13344096298,"2221 Tiger Town Pkwy Opelika, Alabama 36801 US",https://locations.fivebelow.com/al/opelika/2221-tiger-town-pkwy,-85.40664490358729,32.617573115183156,opelika,al
Oxford Commons,null,12568324033,"50 Commons Way Oxford, Alabama 36203 US",https://locations.fivebelow.com/al/oxford/50-commons-way,-85.78809621230317,33.60967127346164,oxford,al
Pell City Square,null,16592162373,"2845 John Haynes Blvd Pell City, Alabama 35125 US",https://locations.fivebelow.com/al/pell-city/2845-john-haynes-blvd,-86.2758063,33.6050546,pell-city,al
The Exchange at Prattville,null,13342902864,"1472 Cotton Exchange Prattville, Alabama 36066 US",https://locations.fivebelow.com/al/prattville/1472-cotton-exchange,-86.4075317,32.4574127,prattville,al
Scottsboro Commons,null,12566788418,"22991 John T Reid Pkwy Suite E Scottsboro, Alabama 35768 US",https://locations.fivebelow.com/al/scottsboro/22991-john-t-reid-pkwy,-86.0297409503145,34.64770055411634,scottsboro,al
Payton Park,null,12563671274,"41271 US-280 W Unit 11 Sylacauga, Alabama 35150 US",https://locations.fivebelow.com/al/sylacauga/41271-us-280-w,-86.2867539,33.1761634,sylacauga,al
Trojan Marketplace,null,13345003681,"1307 US Hwy 231 S Suite 5 Troy, Alabama 36081 US",https://locations.fivebelow.com/al/troy/1307-us-hwy-231-s,-85.99756654997138,31.856857306540103,troy,al
Shoppes at Legacy Park,null,12057581081,"1451 Dr. Edward Hillard Drive Tuscaloosa, Alabama 35401 US",https://locations.fivebelow.com/al/tuscaloosa/1451-dr-edward-hillard-drive,-87.52759672883604,33.19844071512684,tuscaloosa,al
Gateway Crossing Shopping Center,null,16232648008,"9945 W. McDowell Rd. Ste. 116 Avondale, Arizona 85392 US",https://locations.fivebelow.com/az/avondale/9945-w-mcdowell-rd,-112.27643022209016,33.46329391540358,avondale,az
2150 South Miller Road,null,16232648002,"2150 South Miller Road Buckeye, Arizona 85326 US",https://locations.fivebelow.com/az/buckeye/2150-south-miller-road,-112.5922089,33.3876336,buckeye,az
Mohave Crossroads,null,19283899087,"3699 AZ-95 Suite 620 Bullhead City, Arizona 86442 US",https://locations.fivebelow.com/az/bullhead-city/3699-az-95,-114.59192371750304,35.051520088067406,bullhead-city,az
Casa Grande,null,15204233580,"1330 E Florence Blvd Casa Grande, Arizona 85122 US",https://locations.fivebelow.com/az/casa-grande/1330-e-florence-blvd,-111.7295145521496,32.88077126970667,casa-grande,az
Peoria Crossings,null,16232449546,"9420 W Northern Ave, Ste 101 Glendale, Arizona 85305 US",https://locations.fivebelow.com/az/glendale/9420-w-northern-ave-ste-101,-112.261753,33.5541363,glendale,az
Mariposa Mall,null,15204873664,"290 West Mariposa Road Nogales, Arizona 85621 US",https://locations.fivebelow.com/az/nogales/290-west-mariposa-road,-110.93557005954399,31.368666931133795,nogales,az
Rooney Ranch Shopping Center,null,15203373362,"10571 N Oracle Road Suite 102 Oro Valley, Arizona 85737 US",https://locations.fivebelow.com/az/oro-valley/10571-n-oracle-road,-110.95943327479644,32.39947055267897,oro-valley,az
Scottsdale Promenade,null,14805429473,"16219 N Scottsdale Rd Scottsdale, Arizona 85254 US",https://locations.fivebelow.com/az/scottsdale/16219-n-scottsdale-rd,-111.92368130697876,33.633963530251684,scottsdale,az
Village at Prasada,null,16232646776,"13490 N. Prasada Parkway Surprise, Arizona 85388 US",https://locations.fivebelow.com/az/surprise/13490-n-prasada-parkway,-112.4139267,33.608233,surprise,az
Pecan Promenade,null,16232646770,"9820 W Lower Buckeye Road Tolleson, Arizona 85353 US",https://locations.fivebelow.com/az/tolleson/9820-w-lower-buckeye-road,-112.26893571412089,33.4220363816048,tolleson,az
Yuma Palms Shopping Center,null,19282647654,"1496 Yuma Palms Pkwy Bldg J, Suite 3 Yuma, Arizona 85365 US",https://locations.fivebelow.com/az/yuma/1496-yuma-palms-pkwy-bldg-j-suite-3,-114.60416851439807,32.7002378000824,yuma,az
Alcoa Crossings,null,15017785519,"7341 Alcoa Road Bryant, Arkansas 72022 US",https://locations.fivebelow.com/ar/bryant/7341-alcoa-road,-92.53182964930073,34.60371021238467,bryant,ar
Lewis Crossings,null,15015042654,"1040 South Amity Road Conway, Arkansas 72032 US",https://locations.fivebelow.com/ar/conway/1040-south-amity-road,-92.4119796,35.0644607,conway,ar
Fairgrounds Crossing,null,15012893536,"1446 Higdon Ferry Road Hot Springs, Arkansas 71913 US",https://locations.fivebelow.com/ar/hot-springs/1446-higdon-ferry-road,-93.0720866,34.4684305,hot-springs,ar
Caraway Plaza,null,18709336621,"1127 South Caraway Road Jonesboro, Arkansas 72401 US",https://locations.fivebelow.com/ar/jonesboro/1127-south-caraway-road,-90.6790221,35.8310424,jonesboro,ar
McCain Plaza - Little Rock,null,15012145340,"4206 E McCain Blvd North Little Rock, Arkansas 72117 US",https://locations.fivebelow.com/ar/north-little-rock/4206-e-mccain-blvd,-92.221726,34.787489,north-little-rock,ar
Town West Shopping Center,null,18704642645,"2503 West Kingshighway Paragould, Arkansas 72450 US",https://locations.fivebelow.com/ar/paragould/2503-west-kingshighway,-90.5184418913911,36.06154025530041,paragould,ar
Valley Park Centre,null,14792442059,"3065 East Main Street Russellville, Arkansas 72802 US",https://locations.fivebelow.com/ar/russellville/3065-east-main-street,-93.0973496,35.2804153,russellville,ar
Searcy City Center,null,15012791460,"1321 Janet Street Searcy, Arkansas 72143 US",https://locations.fivebelow.com/ar/searcy/1321-janet-street,-91.7081895,35.2362679,searcy,ar
South Shore Center,null,15109372270,"2251 S Shore Center Alameda, California 94501 US",https://locations.fivebelow.com/ca/alameda/2251-s-shore-center,-122.25036110077838,37.75685830777547,alameda,ca
Alhambra Place,null,16265768739,"2 South Garfield Avenue Alhambra, California 91801 US",https://locations.fivebelow.com/ca/alhambra/2-south-garfield-avenue,-118.1258527,34.0945359,alhambra,ca
Aliso Viejo Town Center,null,19496433501,"26791 Aliso Creek Road B Aliso Viejo, California 92656 US",https://locations.fivebelow.com/ca/aliso-viejo/26791-aliso-creek-road-b,-117.7253394,33.5730306,aliso-viejo,ca
Slatten Ranch Shopping Center,null,19252550118,"5739 Lone Tree Way Antioch, California 94531 US",https://locations.fivebelow.com/ca/antioch/5739-lone-tree-way,-121.73970184780949,37.96341654255245,antioch,ca
Bakersfield Plaza,null,16618520709,"4310 California Ave Bakersfield, California 93304 US",https://locations.fivebelow.com/ca/bakersfield/4310-california-ave,-119.0507032,35.3691507,bakersfield,ca
San Gorgonio Village,null,19513501435,"1545 E 2nd Street, Ste 200 Beaumont, California 92223 US",https://locations.fivebelow.com/ca/beaumont/1545-e-2nd-street-ste-200,-116.9524002,33.9222831,beaumont,ca
Buena Park Place,null,17146902958,"8371 La Palma Avenue Buena Park, California 90620 US",https://locations.fivebelow.com/ca/buena-park/8371-la-palma-avenue,-117.98781907110356,33.84862018612147,buena-park,ca
Crestview Shopping Center,null,12792797250,"4734 Manzanita Ave Carmichael, California 95608 US",https://locations.fivebelow.com/ca/carmichael/4734-manzanita-ave,-121.32568201288012,38.650552243580826,carmichael,ca
Village Walk at Eastlake,null,16194858118,"878 Eastlake Pkwy Suite 1110 Chula Vista, California 91914 US",https://locations.fivebelow.com/ca/chula-vista/878-eastlake-pkwy-suite-1110,-116.970457,32.651362,chula-vista,ca
Citrus Town Center,null,19163473297,"7953 Greenback Ln Citrus Heights, California 95610 US",https://locations.fivebelow.com/ca/citrus-heights/7953-greenback-ln,-121.26922003350697,38.67992752271503,citrus-heights,ca
Clovis Crossing,null,15592161827,"1245 Herndon Ave Clovis, California 93612 US",https://locations.fivebelow.com/ca/clovis/1245-herndon-ave,-119.69301427116395,36.83937224051269,clovis,ca
Willows Shopping Center,null,19254124294,"1975 Diamond Blvd Suite F10 Concord, California 94520 US",https://locations.fivebelow.com/ca/concord/1975-diamond-blvd,-122.0561341,37.9682152,concord,ca
Corona Hills Plaza,null,19512533852,"390 N McKinley St Suite 107 Corona, California 92879 US",https://locations.fivebelow.com/ca/corona/390-n-mckinley-st,-117.52278808911078,33.885064592332256,corona,ca
Harbor Center,null,19495037533,"2300 Harbor Blvd Suite E-1 Costa Mesa, California 92627 US",https://locations.fivebelow.com/ca/costa-mesa/2300-harbor-blvd,-117.918204,33.654579,costa-mesa,ca
Delano Marketplace,null,17866872147,"720 Woollomes Ave Ste 107 Delano, California 93215 US",https://locations.fivebelow.com/ca/delano/720-woollomes-ave-ste-107,-119.2446091,35.7442383,delano,ca
The Promenade at Downey,null,15624010345,"9090 Apollo Way Downey, California 90242 US",https://locations.fivebelow.com/ca/downey/9090-apollo-way,-118.1277655,33.9221356,downey,ca
Hacienda Crossings,null,19252907796,"4860 Dublin Blvd Dublin, California 94568 US",https://locations.fivebelow.com/ca/dublin/4860-dublin-blvd,-121.8824719343586,37.70472159818474,dublin,ca
Gateway Towne Center,null,13106350465,"1785 Alameda Street East Compton, California 90220 US",https://locations.fivebelow.com/ca/east-compton/1785-alameda-street,-118.21876299775994,33.8759589708564,east-compton,ca
Parkway Plaza,null,16193693757,"335 Parkway Plaza Suite M20 El Cajon, California 92020 US",https://locations.fivebelow.com/ca/el-cajon/335-parkway-plaza,-116.96703908566411,32.80558838262608,el-cajon,ca
Santa Fe Trail Plaza,null,16265828206,"10653 Valley Boulevard El Monte, California 91731 US",https://locations.fivebelow.com/ca/el-monte/10653-valley-boulevard,-118.0392786,34.0776784,el-monte,ca
Laguna Crossroads,null,19167556186,"7431 Laguna Blvd Suite 100 Elk Grove, California 95758 US",https://locations.fivebelow.com/ca/elk-grove/7431-laguna-blvd,-121.41728443349834,38.425348931969644,elk-grove,ca
El Camino Promenade,null,17602492334,"220  El Camino Real Encinitas, California 92024 US",https://locations.fivebelow.com/ca/encinitas/220-el-camino-real,-117.26212333278396,33.050000657797135,encinitas,ca
Escondido Promenade,null,17604379039,"1272 Auto Park Way Escondido, California 92029 US",https://locations.fivebelow.com/ca/escondido/1272-auto-park-way,-117.0985221187136,33.11254716034827,escondido,ca
Broadstone Plaza,null,19162458315,"2775A E Bidwell St Folsom, California 95630 US",https://locations.fivebelow.com/ca/folsom/2775a-e-bidwell-st,-121.12585600171451,38.652530009852,folsom,ca
Fountain Valley Promenade,null,18188629371,"18309 Brookhurst St, Suite 5 Fountain Valley, California 92708 US",https://locations.fivebelow.com/ca/fountain-valley/18309-brookhurst-st-suite-5,-117.95570239201338,33.69629785864135,fountain-valley,ca
Fullerton Town Center,null,16572932665,"1134 S Harbor Blvd Fullerton, California 92832 US",https://locations.fivebelow.com/ca/fullerton/1134-s-harbor-blvd,-117.9226118,33.8610778,fullerton,ca
Promenade at Garden Grove,null,16572222895,"9921 Chapman Ave Garden Grove, California 92841 US",https://locations.fivebelow.com/ca/garden-grove/9921-chapman-ave,-117.95977775526967,33.79016723308027,garden-grove,ca
Glendale Marketplace,null,18182445864,"124 South Brand Boulevard Glendale, California 91204 US",https://locations.fivebelow.com/ca/glendale/124-south-brand-boulevard,-118.2545028,34.1455184,glendale,ca
Granada Hills Town Center,null,17472611634,"18040 Chatsworth St suite A Granada Hills, California 91344 US",https://locations.fivebelow.com/ca/granada-hills/18040-chatsworth-st,-118.52570735337295,34.26325831716116,granada-hills,ca
Oceangate Commerce Center,null,13109788760,"14350 Ocean Gate Ave Hawthorne, California 90250 US",https://locations.fivebelow.com/ca/hawthorne/14350-ocean-gate-ave,-118.365989,33.900799,hawthorne,ca
Village West,null,19512822340,"2999 W Florida Ave Hemet, California 92545 US",https://locations.fivebelow.com/ca/hemet/2999-w-florida-ave,-117.003318,33.745683,hemet,ca
Park Pacific Shopping Center,null,14242944952,"1100 North Pacific Coast Highway Unit 9 Hermosa Beach, California 90254 US",https://locations.fivebelow.com/ca/hermosa-beach/1100-north-pacific-coast-highway,-118.39214884645415,33.86345900301714,hermosa-beach,ca
Indio Town Center,null,17602275120,"42300 Jackson St Indio, California 92203 US",https://locations.fivebelow.com/ca/indio/42300-jackson-st,-116.21286640312582,33.73715359254365,indio,ca
Westridge Plaza,null,15624186398,"1326 S Beach Blvd Suite B La Habra, California 90631 US",https://locations.fivebelow.com/ca/la-habra/1326-s-beach-blvd-suite-b,-117.96602468959831,33.91573465190039,la-habra,ca
La Verne Towne Center,null,19093927896,"2444 Foothill Boulevard La Verne, California 91750 US",https://locations.fivebelow.com/ca/la-verne/2444-foothill-boulevard,-117.7603738,34.1099421,la-verne,ca
Mercantile East Shopping Center,null,19493735963,"27582 Antonio Pkwy Ladera Ranch, California 92694 US",https://locations.fivebelow.com/ca/ladera-ranch/27582-antonio-pkwy,-117.6279298347537,33.5624100470478,ladera-ranch,ca
Central Marketplace,null,19512459877,"18438 Collier Avenue Lake Elsinore, California 92532 US",https://locations.fivebelow.com/ca/lake-elsinore/18438-collier-avenue,-117.337506,33.69016,lake-elsinore,ca
The Orchard,null,19492293795,"23620 El Toro Road Unit M4 Lake Forest, California 92630 US",https://locations.fivebelow.com/ca/lake-forest/23620-el-toro-road-unit-m4,-117.7010024,33.6181424,lake-forest,ca
Valley Central,null,16617230451,"44426 Valley Central Way Lancaster, California 93536 US",https://locations.fivebelow.com/ca/lancaster/44426-valley-central-way,-118.17113609325406,34.69089083787976,lancaster,ca
Sunwest Plaza,null,12096900366,"2350 W Kettleman Ln Suite 130 Lodi, California 95242 US",https://locations.fivebelow.com/ca/lodi/2350-w-kettleman-ln,-121.30308866266677,38.11296459596906,lodi,ca
Lompoc Center,null,18057353249,"613 N H Street Lompoc, California 93436 US",https://locations.fivebelow.com/ca/lompoc/613-n-h-street,-120.45912099999998,34.64825217383913,lompoc,ca
North Los Altos Shopping Center,null,15623141346,"5545 Stearns St Long Beach, California 90815 US",https://locations.fivebelow.com/ca/long-beach/5545-stearns-st,-118.1235146,33.7965232,long-beach,ca
Vermont & Slauson,null,13236422013,"5850 Vermont Ave Suite C Los Angeles, California 90044 US",https://locations.fivebelow.com/ca/los-angeles/5850-vermont-ave,-118.2905924,33.9874499,los-angeles,ca
Canal Farms Shopping Center,null,12095400484,"1321 E Pacheco Blvd Suite #B Los Banos, California 93635 US",https://locations.fivebelow.com/ca/los-banos/1321-e-pacheco-blvd,-120.8349022,37.0568152,los-banos,ca
The Dunes On Monterey Bay,null,18312468616,"125 General Stillwell Drive Marina, California 93933 US",https://locations.fivebelow.com/ca/marina/125-general-stillwell-drive,-121.81239618335542,36.66784251777173,marina,ca
Great Mall,null,16693066821,"1210 Great Mall Dr Milpitas, California 95035 US",https://locations.fivebelow.com/ca/milpitas/1210-great-mall-dr,-121.89867072470032,37.414613084796464,milpitas,ca
Vintage Plaza,null,12096900358,"3250 Dale Road Suite C Modesto, California 95356 US",https://locations.fivebelow.com/ca/modesto/3250-dale-road,-121.04943283988115,37.687143190162686,modesto,ca
Montclair East,null,19093981941,"5427 Moreno Street D Montclair, California 91763 US",https://locations.fivebelow.com/ca/montclair/5427-moreno-street-d,-117.6869015,34.087242,montclair,ca
Murrieta Town Center,null,19514610356,"40473 Mureitta Hot Springs Rd Murrieta, California 92563 US",https://locations.fivebelow.com/ca/murrieta/40473-mureitta-hot-springs-rd,-117.179549,33.5585544,murrieta,ca
NoHo West,null,12135020832,"6130 Laurel Canyon Blvd Suite 110 North Hollywood, California 91606 US",https://locations.fivebelow.com/ca/north-hollywood/6130-laurel-canyon-blvd,-118.3956689875874,34.182002562809316,north-hollywood,ca
Nordhoff Plaza,null,17472570324,"19350-A Nordhoff St. Northridge, California 91324 US",https://locations.fivebelow.com/ca/northridge/19350-a-nordhoff-st,-118.55578046696736,34.23379064924274,northridge,ca
Ontario Mills Mall,null,19094668272,"1 Mills Circle Ontario, California 91764 US",https://locations.fivebelow.com/ca/ontario/1-mills-circle,-117.5498992,34.0729152,ontario,ca
The Esplanade,null,18052788798,"441 W. Esplanade Drive Oxnard, California 93036 US",https://locations.fivebelow.com/ca/oxnard/441-w-esplanade-drive,-119.1794491811753,34.237357964030004,oxnard,ca
Pismo Beach Premium Outlets,null,18054753290,"333 Five Cities Drive, suite 121 PISMO BEACH, California 93449 US",https://locations.fivebelow.com/ca/pismo-beach/333-five-cities-drive-suite-121,-120.62759487071463,35.13530205938276,pismo-beach,ca
Desert Crossing,null,17603406554,"72-489 Highway 111 Palm Desert, California 92260 US",https://locations.fivebelow.com/ca/palm-desert/72-489-highway-111,-116.404254,33.724449,palm-desert,ca
Palmdale Marketplace,null,16612259810,"39180 10th Street West Palmdale, California 93551 US",https://locations.fivebelow.com/ca/palmdale/39180-10th-street-west,-118.1453492,34.5952352,palmdale,ca
The Plant,null,18187790314,"7880 Van Nuys Boulevard Panorama City, California 91402 US",https://locations.fivebelow.com/ca/panorama-city/7880-van-nuys-boulevard,-118.4461049,34.2155714,panorama-city,ca
The Crossing at Paso Robles,null,18053099730,"2169 Theatre Drive Paso Robles, California 93446 US",https://locations.fivebelow.com/ca/paso-robles/2169-theatre-drive,-120.69704441958841,35.58561715580428,paso-robles,ca
Plaza De Perris,null,19512277323,"1688 N Perris Blvd Ste. E Perris, California 92571 US",https://locations.fivebelow.com/ca/perris/1688-n-perris-blvd,-117.22839798280336,33.80219677548553,perris,ca
Redwood Gateway,null,17074400495,"1355 N McDowell Blvd Petaluma, California 94954 US",https://locations.fivebelow.com/ca/petaluma/1355-n-mcdowell-blvd,-122.66523457607478,38.27265924713637,petaluma,ca
Pico Rivera Towne Center,null,15622221715,"8850 Washington Blvd Pico Rivera, California 90660 US",https://locations.fivebelow.com/ca/pico-rivera/8850-washington-blvd,-118.0999428,33.9827864,pico-rivera,ca
Porter Ranch Town Center,null,18183603775,"19881 Rinaldi Street Porter Ranch, California 91326 US",https://locations.fivebelow.com/ca/porter-ranch/19881-rinaldi-street,-118.5681486,34.2773297,porter-ranch,ca
Rancho Cordova Town Center,null,19165367507,"10899 Olsen Drive Rancho Cordova, California 95670 US",https://locations.fivebelow.com/ca/rancho-cordova/10899-olsen-drive,-121.2841616,38.5963284,rancho-cordova,ca
Terra Vista Town Center,null,19094666809,"10828 E. Foothill Blvd Suite 120 Rancho Cucamonga, California 91730 US",https://locations.fivebelow.com/ca/rancho-cucamonga/10828-e-foothill-blvd,-117.5684686,34.1076258,rancho-cucamonga,ca
Citrus Plaza Shopping Center,null,19093075732,"27592 W. Lugonia Ave Redlands, California 92374 US",https://locations.fivebelow.com/ca/redlands/27592-w-lugonia-ave,-117.20260567408616,34.07076464164811,redlands,ca
Victory & Tampa Shopping Center,null,17472465801,"19377 Victory Blvd Reseda, California 91335 US",https://locations.fivebelow.com/ca/reseda/19377-victory-blvd,-118.55616357607478,34.18787717747204,reseda,ca
Rocklin Commons,null,19166100047,"5108 Commons Drive Suite 103 Rocklin, California 95677 US",https://locations.fivebelow.com/ca/rocklin/5108-commons-drive,-121.20897196405721,38.80364884133727,rocklin,ca
Peninsula Center,null,14242657434,"28 Peninsula Center Rolling Hills, California 90274 US",https://locations.fivebelow.com/ca/rolling-hills/28-peninsula-center,-118.37703658650751,33.77428657726145,rolling-hills,ca
Creekside Town Center,null,19165867956,"1240 Galleria Blvd #100 Roseville, California 95678 US",https://locations.fivebelow.com/ca/roseville/1240-galleria-blvd-100,-121.2642461,38.7748199,roseville,ca
Puente Hills Town Center,null,16263170841,"17394 Colima Rd Suite #408 Rowland Heights, California 91748 US",https://locations.fivebelow.com/ca/rowland-heights/17394-colima-rd,-117.92739354307422,33.98989872975414,rowland-heights,ca
Northridge Mall,null,18312011835,"840 Northridge Mall Salinas, California 93906 US",https://locations.fivebelow.com/ca/salinas/840-northridge-mall,-121.6575167,36.7210617,salinas,ca
San Dimas Marketplace,null,19093051546,"802 W. Arrow Hwy San Dimas, California 91773 US",https://locations.fivebelow.com/ca/san-dimas/802-w-arrow-hwy,-117.82237413444722,34.10636458202381,san-dimas,ca
Village Oaks Shopping Center,null,16196333206,"5650 Cottle Rd Suite 10 San Jose, California 95123 US",https://locations.fivebelow.com/ca/san-jose/5650-cottle-rd,-121.80181234173295,37.24910513988125,san-jose,ca
Madonna Plaza Shopping Center,null,18055394821,"271 Madonna Road Suite B San Luis Obispo, California 93405 US",https://locations.fivebelow.com/ca/san-luis-obispo/271-madonna-road,-120.67428405091563,35.26108382833522,san-luis-obispo,ca
Bridgepointe Shopping Center,null,16504437761,"3010 Bridgepointe Pkwy San Mateo, California 94404 US",https://locations.fivebelow.com/ca/san-mateo/3010-bridgepointe-pkwy,-122.28005123068847,37.56130718966765,san-mateo,ca
Plaza at the Border,null,16193244638,"3915 Camino de la Plaza San Ysidro, California 92173 US",https://locations.fivebelow.com/ca/san-ysidro/3915-camino-de-la-plaza,-117.0468246,32.5435814,san-ysidro,ca
River Oaks Shopping Center,null,16614938809,"24355 Magic Mountain Pkwy Santa Clarita, California 91355 US",https://locations.fivebelow.com/ca/santa-clarita/24355-magic-mountain-pkwy,-118.56043653491975,34.42072857114658,santa-clarita,ca
The Crossroads at Santa Maria,null,18053453387,"2342 South Bradley Road Santa Maria, California 93455 US",https://locations.fivebelow.com/ca/santa-maria/2342-south-bradley-road,-120.41991451476281,34.91712063103958,santa-maria,ca
Trolley Square,null,16193692876,"9934 Mission Gorge Road Santee, California 92071 US",https://locations.fivebelow.com/ca/santee/9934-mission-gorge-road,-116.9799992,32.8393444,santee,ca
Simi Valley Town Center,null,18055797064,"1555 Simi Town Center Way Simi Valley, California 93065 US",https://locations.fivebelow.com/ca/simi-valley/1555-simi-town-center-way,-118.7707786,34.284235,simi-valley,ca
Azalea,null,13235642720,"4849 Firestone Boulevard South Gate, California 90280 US",https://locations.fivebelow.com/ca/south-gate/4849-firestone-boulevard,-118.18504499694563,33.953530628016644,south-gate,ca
Valencia Marketplace,null,16612911501,"25670 The Old Rd Stevenson Ranch, California 91381 US",https://locations.fivebelow.com/ca/stevenson-ranch/25670-the-old-rd,-118.5713356,34.3882691,stevenson-ranch,ca
Vail Ranch Center,null,19512533290,"31781 Temecula Pkwy suite 100 Temecula, California 92592 US",https://locations.fivebelow.com/ca/temecula/31781-temecula-pkwy,-117.10270715791931,33.47740271696612,temecula,ca
Janss Marketplace,null,18056189841,"179 N Moorpark Rd Suite B Thousand Oaks, California 91360 US",https://locations.fivebelow.com/ca/thousand-oaks/179-n-moorpark-rd,-118.8775842,34.182265,thousand-oaks,ca
Monte Vista Crossing,null,12094262391,"2901 Countryside Drive Turlock, California 95380 US",https://locations.fivebelow.com/ca/turlock/2901-countryside-drive,-120.88129047368506,37.51932046664761,turlock,ca
Colonies Crossroads,null,19096089221,"1263 E 19th Street Upland, California 91784 US",https://locations.fivebelow.com/ca/upland/1263-e-19th-street,-117.6337143,34.132413,upland,ca
Nut Tree Plaza,null,17072677386,"1621 E Monte Vista Ave Suite C-200 Vacaville, California 95688 US",https://locations.fivebelow.com/ca/vacaville/1621-e-monte-vista-ave,-121.9649442489359,38.367743345879354,vacaville,ca
Gateway Plaza,null,17078829831,"129 Plaza Drive Vallejo, California 94591 US",https://locations.fivebelow.com/ca/vallejo/129-plaza-drive,-122.22067119707333,38.13232221839214,vallejo,ca
Ventura Gateway,null,18056189836,"4900 Telephone Rd Ventura, California 93003 US",https://locations.fivebelow.com/ca/ventura/4900-telephone-rd,-119.2263575,34.2610415,ventura,ca
Gateway Plaza,null,15596351130,"3729 South Mooney Boulevard Visalia, California 93277 US",https://locations.fivebelow.com/ca/visalia/3729-south-mooney-boulevard,-119.3154942245369,36.29652158823971,visalia,ca
Eastland Center,null,16266534647,"2700 East Workman Street Suite B West Covina, California 91791 US",https://locations.fivebelow.com/ca/west-covina/2700-east-workman-street-suite-b,-117.887487,34.075,west-covina,ca
Fallbrook Center,null,18189374142,"6605 Fallbrook Avenue West Hills, California 91307 US",https://locations.fivebelow.com/ca/west-hills/6605-fallbrook-avenue,-118.62442589078998,34.18935267145175,west-hills,ca
The Quad at Whittier,null,15623594570,"8512-A Painter Ave Whittier, California 90602 US",https://locations.fivebelow.com/ca/whittier/8512-a-painter-ave,-118.033781,33.960467,whittier,ca
Yuba Sutter Marketplace,null,15302314684,"1005 Colusa Ave Yuba City, California 95991 US",https://locations.fivebelow.com/ca/yuba-city/1005-colusa-ave,-121.6313005,39.1424187,yuba-city,ca
Arvada Marketplace,null,13035295031,"7390 W. 52nd Ave Unit B Arvada, Colorado 80002 US",https://locations.fivebelow.com/co/arvada/7390-w-52nd-ave,-105.07922326693009,39.78889358293539,arvada,co
The Shoppes at Castle Rock,null,17206083675,"5650 Allen Way Suite 110 Castle Rock, Colorado 80108 US",https://locations.fivebelow.com/co/castle-rock/5650-allen-way,-104.8634856943651,39.41523963560846,castle-rock,co
University Hills,null,17204090641,"2780 S Colorado Blvd Denver, Colorado 80222 US",https://locations.fivebelow.com/co/denver/2780-s-colorado-blvd,-104.93844008765922,39.66576829447688,denver,co
Bowles Crossing,null,17206494319,"Major A2 - Unit 100, 8055 W Bowles Ave Littleton, Colorado 80123 US",https://locations.fivebelow.com/co/littleton/major-a2-unit-100-8055-w-bowles-ave,-105.08882925151765,39.61123981629762,littleton,co
South Denver Marketplace,null,17207642343,"8680 Park Meadows Center Dr, Suite C Lone Tree, Colorado 80124 US",https://locations.fivebelow.com/co/lone-tree/8680-park-meadows-center-dr-suite-c,-104.87466105950718,39.557237466484146,lone-tree,co
Village at the Peaks,null,17207847857,"1240 South Hover Street Suite 500 Longmont, Colorado 80501 US",https://locations.fivebelow.com/co/longmont/1240-south-hover-street,-105.12749238607365,40.14602933800645,longmont,co
Marketplace at Centerra,null,19703448887,"1651 Fall River Dr Loveland, Colorado 80538 US",https://locations.fivebelow.com/co/loveland/1651-fall-river-dr,-105.00756933494671,40.40960738234168,loveland,co
Northglenn Marketplace,null,17204090655,"407 W. 104th Ave. Northglenn, Colorado 80234 US",https://locations.fivebelow.com/co/northglenn/407-w-104th-ave,-104.9918798281639,39.88636947125552,northglenn,co
Flat Acres Marketplace,null,17206495740,"11455 S Twenty Mile Road Parker, Colorado 80134 US",https://locations.fivebelow.com/co/parker/11455-s-twenty-mile-road,-104.7667281,39.5083569,parker,co
Pueblo Crossing,null,17193157420,"5819 N. Elizabeth St Pueblo, Colorado 81008 US",https://locations.fivebelow.com/co/pueblo/5819-n-elizabeth-st,-104.6207946,38.3334719,pueblo,co
River Point at Sheridan,null,17206693283,"3640 River Point Pkwy Unit 'A' Sheridan, Colorado 80110 US",https://locations.fivebelow.com/co/sheridan/3640-river-point-pkwy,-105.00649210626138,39.650907351982575,sheridan,co
Copaco Shopping Center,null,18604068934,"283 Cottage Grove Rd Bloomfield, Connecticut 06002 US",https://locations.fivebelow.com/ct/bloomfield/283-cottage-grove-rd,-72.71284192387643,41.81574907311786,bloomfield,ct
Branhaven Plaza,null,14752750084,"1025-91 West Main St. Branford, Connecticut 06405 US",https://locations.fivebelow.com/ct/branford/1025-91-west-main-st,-72.83194640216459,41.27443966307371,branford,ct
Bristol Plaza,null,18603339124,"597 Farmington Ave. Unit 2 Bristol, Connecticut 06010 US",https://locations.fivebelow.com/ct/bristol/597-farmington-ave,-72.92360643895948,41.69193533924083,bristol,ct
Cromwell Square Shopping Center,null,18604068694,"51 Shunpike Road Cromwell, Connecticut 06416 US",https://locations.fivebelow.com/ct/cromwell/51-shunpike-road,-72.678433,41.605198,cromwell,ct
Killingly Commons,null,18607741758,"2141 Killingly Commons Drive Dayville, Connecticut 06241 US",https://locations.fivebelow.com/ct/dayville/2141-killingly-commons-drive,-71.88464513128281,41.83993302241798,dayville,ct
Enfield Commons,null,18602539465,"25 Hazard Avenue Enfield, Connecticut 06082 US",https://locations.fivebelow.com/ct/enfield/25-hazard-avenue,-72.58179846816017,41.99155633310036,enfield,ct
West Farm Shopping Center,null,18606063832,"1600 SE Rd. Farmington, Connecticut 06032 US",https://locations.fivebelow.com/ct/farmington/1600-se-rd,-72.76421271035001,41.715715172242334,farmington,ct
Lisbon Landing,null,18603760208,"160 River Road Lisbon, Connecticut 06351 US",https://locations.fivebelow.com/ct/lisbon/160-river-road,-71.99291346464275,41.58484517093121,lisbon,ct
Plaza at Buckland Hills,null,18606441760,"1510 Pleasant Valley Rd Manchester, Connecticut 06040 US",https://locations.fivebelow.com/ct/manchester/1510-pleasant-valley-rd,-72.5579067828894,41.80665650589877,manchester,ct
Townline Square,null,12033795018,"533 S. Broad Street Meriden, Connecticut 06450 US",https://locations.fivebelow.com/ct/meriden/533-s-broad-street,-72.8068962,41.5093681,meriden,ct
Milford,null,14752756068,"1397 Post Rd Milford, Connecticut 06461 US",https://locations.fivebelow.com/ct/milford/1397-post-rd,-73.0300210932541,41.239944712677584,milford,ct
New Milford CT,null,18604539140,"169 Danbury Rd Suite E2 New Milford, Connecticut 06776 US",https://locations.fivebelow.com/ct/new-milford/169-danbury-rd,-73.4181636926424,41.54904595133721,new-milford,ct
North Haven Crossing,null,12032390617,"410 Universal Drive North #02A North Haven, Connecticut 06473 US",https://locations.fivebelow.com/ct/north-haven/410-universal-drive-north,-72.87302006134223,41.357108887105746,north-haven,ct
Darinor Plaza,null,12032990293,"500 Connecticut Ave Norwalk, Connecticut 06854 US",https://locations.fivebelow.com/ct/norwalk/500-connecticut-ave,-73.4448054,41.0988878,norwalk,ct
Old Saybrook Shopping Center,null,18602695170,"665 Boston Post Road Old Saybrook, Connecticut 06475 US",https://locations.fivebelow.com/ct/old-saybrook/665-boston-post-road,-72.3813507,41.2967997,old-saybrook,ct
Plainville Commons,null,18607475378,"248-D New Britain Rd Plainville, Connecticut 06062 US",https://locations.fivebelow.com/ct/plainville/248-d-new-britain-rd,-72.84237393405283,41.675417715901865,plainville,ct
Ridgeway Shopping Center,null,14752081674,"2321 Summer St Stamford, Connecticut 06905 US",https://locations.fivebelow.com/ct/stamford/2321-summer-st,-73.54631039707333,41.068119597059784,stamford,ct
Hawley Lane Mall,null,12033754839,"100 Hawley Ln Trumbull, Connecticut 06611 US",https://locations.fivebelow.com/ct/trumbull/100-hawley-ln,-73.15227079378599,41.232254129520214,trumbull,ct
Vernon,null,18604304934,"35 Talcottville Rd Suite 28 Vernon, Connecticut 06066 US",https://locations.fivebelow.com/ct/vernon/35-talcottville-rd,-72.49833592765144,41.82848332067837,vernon,ct
Brass Mill Center,null,12035739373,"245 Union Street Waterbury, Connecticut 06706 US",https://locations.fivebelow.com/ct/waterbury/245-union-street,-73.0324968,41.5531833,waterbury,ct
Waterford Commons,null,18604373401,"917 Hartford Turnpike Waterford, Connecticut 06385 US",https://locations.fivebelow.com/ct/waterford/917-hartford-turnpike,-72.14971932638935,41.38206089992251,waterford,ct
Christiana Town Center,null,13022667139,"335 West Main Street Christiana, Delaware 19702 US",https://locations.fivebelow.com/de/christiana/335-west-main-street,-75.665582,39.670067,christiana,de
Dover Towne Center,null,13027354807,"1574 North Dupont Highway Suite 700 Dover, Delaware 19901 US",https://locations.fivebelow.com/de/dover/1574-north-dupont-highway,-75.55182661848619,39.19644866816373,dover,de
West Town Corners,null,14073898064,"380 South State Road 434 Altamonte Springs, Florida 32714 US",https://locations.fivebelow.com/fl/altamonte-springs/380-south-state-road-434,-81.4204635,28.6570598,altamonte-springs,fl
Wekiva Riverwalk,null,14075440818,"2193 E Semoran Blvd Apopka, Florida 32703 US",https://locations.fivebelow.com/fl/apopka/2193-e-semoran-blvd,-81.470058,28.675144,apopka,fl
French Golden Gate,null,18632472993,"155 East Van Fleet Drive Bartow, Florida 33830 US",https://locations.fivebelow.com/fl/bartow/155-east-van-fleet-drive,-81.84174952472338,27.902546563312914,bartow,fl
Mission Bay,null,15614882155,"20415 State Road 7B Boca Raton, Florida 33498 US",https://locations.fivebelow.com/fl/boca-raton/20415-state-road,-80.2058241,26.3716836,boca-raton,fl
Oakwood Square,null,15612953049,"368 N. Congress Ave Unit A Boynton Beach, Florida 33426 US",https://locations.fivebelow.com/fl/boynton-beach/368-n-congress-ave,-80.08887992449596,26.530276648224373,boynton-beach,fl
Regency Square,null,18136512725,"2424 West Brandon Boulevard Suite C Brandon, Florida 33511 US",https://locations.fivebelow.com/fl/brandon/2424-west-brandon-boulevard,-82.3218269,27.9411328,brandon,fl
Cortez Commons,null,13525971595,"12928 Cortez Boulevard Brooksville, Florida 34613 US",https://locations.fivebelow.com/fl/brooksville/12928-cortez-boulevard,-82.514739,28.531485,brooksville,fl
Casselberry Commons,null,14076810098,"1455 S Semoran Blvd Casselberry, Florida 32707 US",https://locations.fivebelow.com/fl/casselberry/1455-s-semoran-blvd,-81.31938572023773,28.62723600000001,casselberry,fl
Crestview Commons,null,18503593595,"2680 S Ferdon Blvd Suite: 103 Crestview, Florida 32536 US",https://locations.fivebelow.com/fl/crestview/2680-s-ferdon-blvd,-86.56709368159733,30.732534222647473,crestview,fl
Morningside Plaza,null,13523203363,"12612 US-301 Dade City, Florida 33525 US",https://locations.fivebelow.com/fl/dade-city/12612-us-301,-82.186128,28.34079,dade-city,fl
Dania Pointe,null,19544170378,"1720 S. Bearing Street Dania Beach, Florida 33004 US",https://locations.fivebelow.com/fl/dania-beach/1720-s-bearing-street,-80.15838425766822,26.051748367708353,dania-beach,fl
Posner Village,null,18634014074,"1221 Posner Blvd. Davenport, Florida 33837 US",https://locations.fivebelow.com/fl/davenport/1221-posner-blvd,-81.6422669,28.2243834,davenport,fl
Davie Tower Shops,null,19544746930,"2292 South University Drive Davie, Florida 33324 US",https://locations.fivebelow.com/fl/davie/2292-south-university-drive,-80.24956243338067,26.093256644845965,davie,fl
Deerfield Beach,null,19544291936,"3768 W. Hillsboro Blvd Deerfield Beach, Florida 33442 US",https://locations.fivebelow.com/fl/deerfield-beach/3768-w-hillsboro-blvd,-80.15447194477463,26.315974425396238,deerfield-beach,fl
Deland,null,13212738267,"2701A South Woodland Boulevard Deland, Florida 32720 US",https://locations.fivebelow.com/fl/deland/2701a-south-woodland-boulevard,-81.29869533360579,28.98026397413571,deland,fl
Shoppes at Paradise Key,null,18503992028,"4429 Commons Dr E Suite D-1 Destin, Florida 32541 US",https://locations.fivebelow.com/fl/destin/4429-commons-dr-e-suite-d-1,-86.43026674723876,30.391208670475315,destin,fl
Coconut Point Shopping,null,12394953497,"8024 Mediterranean Drive #103 Estero, Florida 33928 US",https://locations.fivebelow.com/fl/estero/8024-mediterranean-drive,-81.8063755,26.4076,estero,fl
Uptown Station,null,18503010169,"99 Eglin Parkway NE Fort Walton Beach, Florida 32548 US",https://locations.fivebelow.com/fl/fort-walton-beach/99-eglin-parkway-ne,-86.6066677103164,30.417624949466397,fort-walton-beach,fl
River Bridge Center,null,15615108939,"6826 Forest Hill Blvd Greenacres, Florida 33413 US",https://locations.fivebelow.com/fl/greenacres/6826-forest-hill-blvd,-80.15009339940566,26.65092334357777,greenacres,fl
RK Diplomat Center,null,19544567170,"1405 East Hallandale Blvd Hallandale, Florida 33009 US",https://locations.fivebelow.com/fl/hallandale/1405-east-hallandale-blvd,-80.1336057916318,25.987021955864122,hallandale,fl
Sheridan Plaza,null,19548241276,"5161 Sheridan St Hollywood, Florida 33021 US",https://locations.fivebelow.com/fl/hollywood/5161-sheridan-st,-80.19586055706044,26.033536029547147,hollywood,fl
Homestead Pavillion,null,13052465364,"2651 NE 10 Ct. Homestead, Florida 33033 US",https://locations.fivebelow.com/fl/homestead/2651-ne-10-ct,-80.43985636574553,25.47906688757456,homestead,fl
The Oaks,null,17272558325,"8912 State Road 52 Hudson, Florida 34667 US",https://locations.fivebelow.com/fl/hudson/8912-state-road-52,-82.668552,28.329829,hudson,fl
South Beach Regional Shopping Center,null,19042476067,"3876-2 S. 3rd Street Jacksonville Beach, Florida 32250 US",https://locations.fivebelow.com/fl/jacksonville-beach/3876-2-s-3rd-street,-81.3914636,30.2583542,jacksonville-beach,fl
66th Street,null,17275945102,"4541 66th St N Kenneth City, Florida 33709 US",https://locations.fivebelow.com/fl/kenneth-city/4541-66th-st-n,-82.7285074,27.8132377,kenneth-city,fl
Lady Lake Crossing,null,13523203372,"486 US Hwy 27 Suite 441 Lady Lake, Florida 32159 US",https://locations.fivebelow.com/fl/lady-lake/486-us-hwy-27,-81.93123137055225,28.92934555994353,lady-lake,fl
Gleason Place,null,13867541703,"209 NW Hutton Drive Lake City, Florida 32055 US",https://locations.fivebelow.com/fl/lake-city/209-nw-hutton-drive,-82.667587,30.180967,lake-city,fl
Pinewood Square,null,15614334794,"6316 Lantana Rd Lake Worth, Florida 33463 US",https://locations.fivebelow.com/fl/lake-worth/6316-lantana-rd,-80.1441499,26.5877358,lake-worth,fl
Village Lakes,null,18135902159,"21627 Village Lakes Shopping Center Drive Land O Lakes, Florida 34639 US",https://locations.fivebelow.com/fl/land-o-lakes/21627-village-lakes-shopping-center-drive,-82.45825643953219,28.190946818830014,land-o-lakes,fl
Largo Mall,null,17275019415,"10500 Ulmerton Rd Largo, Florida 33771 US",https://locations.fivebelow.com/fl/largo/10500-ulmerton-rd,-82.78483695337297,27.892264881616594,largo,fl
Lauderdale Mall,null,19548241464,"3245 N State Rd 7 Lauderdale Lakes, Florida 33319 US",https://locations.fivebelow.com/fl/lauderdale-lakes/3245-n-state-rd-7,-80.2047222909379,26.16655078598959,lauderdale-lakes,fl
Cypress Creek Town Center,null,18139097739,"25659 Sierra Center Blvd Lutz, Florida 33559 US",https://locations.fivebelow.com/fl/lutz/25659-sierra-center-blvd,-82.394641327746,28.196027484524954,lutz,fl
Miami Gardens Promenade,null,13056222671,"17968 NW 27th Avenue Miami Gardens, Florida 33056 US",https://locations.fivebelow.com/fl/miami-gardens/17968-nw-27th-avenue,-80.2476711,25.9386442,miami-gardens,fl
Monarch Town Center,null,12392962717,"12591 Miramar Parkway Miramar, Florida 33027 US",https://locations.fivebelow.com/fl/miramar/12591-miramar-parkway,-80.31464423572082,25.979480380613612,miramar,fl
The Village at Mitchell Ranch,null,17276456410,"8960 Strength Avenue New Port Richey, Florida 34655 US",https://locations.fivebelow.com/fl/new-port-richey/8960-strength-avenue,-82.6681208,28.2035701,new-port-richey,fl
Cocoplum Village,null,19414269567,"18299 South Tamiami Trail North Port, Florida 34287 US",https://locations.fivebelow.com/fl/north-port/18299-south-tamiami-trail,-82.2106092,27.036186,north-port,fl
Gaitway Plaza,null,13522373813,"2701 SW College Road Ocala, Florida 34474 US",https://locations.fivebelow.com/fl/ocala/2701-sw-college-road,-82.1714100861006,29.167067745602775,ocala,fl
Woodlands Square,null,17272632803,"3130 Tampa Road #2 Oldsmar, Florida 34677 US",https://locations.fivebelow.com/fl/oldsmar/3130-tampa-road,-82.7007291,28.0514388,oldsmar,fl
West Volusia Towne Center,null,13868510862,"937 Harley Strickland Blvd. Orange City, Florida 32763 US",https://locations.fivebelow.com/fl/orange-city/937-harley-strickland-blvd,-81.28707838773153,28.918649302124027,orange-city,fl
Town and Country,null,13862065570,"117 Town and Country Dr Palatka, Florida 32177 US",https://locations.fivebelow.com/fl/palatka/117-town-and-country-dr,-81.671791,29.6472473,palatka,fl
Northlake Commons,null,15616940759,"3926 Northlake Blvd Palm Beach Gardens, Florida 33403 US",https://locations.fivebelow.com/fl/palm-beach-gardens/3926-northlake-blvd,-80.096674,26.8059804,palm-beach-gardens,fl
Island Walk,null,13863092915,"250 Palm Coast Pkwy NE Suite 604 Palm Coast, Florida 32137 US",https://locations.fivebelow.com/fl/palm-coast/250-palm-coast-pkwy-ne,-81.212138190667,29.558052683671225,palm-coast,fl
Bay City Point,null,18503784514,"536 Hawkins Ave. Panama City, Florida 32405 US",https://locations.fivebelow.com/fl/panama-city/536-hawkins-ave,-85.6685143,30.2108781,panama-city,fl
Pier Park North,null,18502336186,"15700 Panama City Beach Parkway Panama City Beach, Florida 32413 US",https://locations.fivebelow.com/fl/panama-city-beach/15700-panama-city-beach-parkway,-85.86848098896996,30.224255010325944,panama-city-beach,fl
Creekside Commons,null,19412543562,"8850 US 301 S Parrish, Florida 34219 US",https://locations.fivebelow.com/fl/parrish/8850-us-301-s,-82.47448836,27.54438449,parrish,fl
Cordova Commons,null,18502999459,"1654 Airport Blvd Unit #140 Pensacola, Florida 32504 US",https://locations.fivebelow.com/fl/pensacola/1654-airport-blvd-unit,-87.20750284788517,30.481359099337823,pensacola,fl
Shoppes at Park Place,null,17272825979,"7170 US Hwy 19 N. Pinellas Park, Florida 33781 US",https://locations.fivebelow.com/fl/pinellas-park/7170-us-hwy-19-n,-82.68509019999999,27.8365844,pinellas-park,fl
Lake Walden Square,null,18137525326,"223 West Alexander Street Plant City, Florida 33563 US",https://locations.fivebelow.com/fl/plant-city/223-west-alexander-street,-82.12488212980043,27.987335538669466,plant-city,fl
Jacaranda Plaza,null,17542025834,"8301 W Sunrise Blvd Plantation, Florida 33322 US",https://locations.fivebelow.com/fl/plantation/8301-w-sunrise-blvd,-80.26250195432483,26.148905177939717,plantation,fl
Pompano Citi Centre,null,19542892507,"2251 North Federal Hwy Suite 105 Pompano Beach, Florida 33062 US",https://locations.fivebelow.com/fl/pompano-beach/2251-north-federal-hwy,-80.10203351962606,26.258695697027463,pompano-beach,fl
Pavilion at Port Orange,null,13863562264,"5503 South Williamson Blvd Port Orange, Florida 32128 US",https://locations.fivebelow.com/fl/port-orange/5503-south-williamson-blvd,-81.03566730000001,29.1086954,port-orange,fl
Coral Sky Plaza,null,15617844077,"520 North State Rd. 7 Royal Palm Beach, Florida 33411 US",https://locations.fivebelow.com/fl/royal-palm-beach/520-north-state-rd-7,-80.1993837,26.684666,royal-palm-beach,fl
The Pavilion at Durbin Park,null,19042300226,"675 Durbin Pavilion Drive Ste 103 Saint Johns, Florida 32259 US",https://locations.fivebelow.com/fl/saint-johns/675-durbin-pavilion-drive,-81.520048,30.095426,saint-johns,fl
Marketplace at Seminole Town Center,null,14073231096,"1771 Wp Ball Park Blvd Sanford, Florida 32771 US",https://locations.fivebelow.com/fl/sanford/1771-wp-ball-park-blvd,-81.3333226,28.7987163,sanford,fl
Shelby Crossing,null,18632258804,"1716 US-27 N Sebring, Florida 33870 US",https://locations.fivebelow.com/fl/sebring/1716-us-27-n,-81.4856506,27.4981696,sebring,fl
Seminole City Center,null,17273190396,"7931 113th St. North Seminole, Florida 33772 US",https://locations.fivebelow.com/fl/seminole/7931-113th-st-north,-82.79251369178644,27.84469495681864,seminole,fl
Nature Coast Commons,null,13525078072,"1377 Wendy Court Spring Hill, Florida 34607 US",https://locations.fivebelow.com/fl/spring-hill/1377-wendy-court,-82.63284779447747,28.45448289722422,spring-hill,fl
Seabridge Square,null,19047475891,"1799 US-1 South St. Augustine, Florida 32084 US",https://locations.fivebelow.com/fl/st-augustine/1799-us-1-south,-81.32516368893756,29.86832413703144,st-augustine,fl
Bradford Square,null,19045938608,"819 S Walnut St Starke, Florida 32091 US",https://locations.fivebelow.com/fl/starke/819-s-walnut-st,-82.11395225643139,29.937837194520174,starke,fl
Stuart Center,null,17724638323,"2321 S Federal Hwy Stuart, Florida 34994 US",https://locations.fivebelow.com/fl/stuart/2321-s-federal-hwy,-80.2346887,27.1781811,stuart,fl
Governor's Marketplace,null,18504020216,"1544 Governors Square Boulevard Tallahassee, Florida 32301 US",https://locations.fivebelow.com/fl/tallahassee/1544-governors-square-boulevard,-84.25747277508742,30.440874109766373,tallahassee,fl
Midway Plaza,null,19547215670,"5767 N University Dr Tamarac, Florida 33321 US",https://locations.fivebelow.com/fl/tamarac/5767-n-university-dr,-80.2547579,26.1959951,tamarac,fl
Tequesta Shoppes,null,15612498646,"115 N US HIGHWAY 1 UNIT 15 Tequesta, Florida 33469 US",https://locations.fivebelow.com/fl/tequesta/115-n-us-highway-1,-80.0830252245369,26.960775944174795,tequesta,fl
Crossroads Marketplace,null,13214996667,"3055 Columbia Blvd 104 Titusville, Florida 32780 US",https://locations.fivebelow.com/fl/titusville/3055-columbia-blvd,-80.84140115817674,28.551407138522976,titusville,fl
Valrico Commons,null,18135661767,"1961 SR-60 E Valrico, Florida 33594 US",https://locations.fivebelow.com/fl/valrico/1961-sr-60-e,-82.25443543831442,27.93646178599953,valrico,fl
Venice Village Shoppes,null,19412793033,"4127 S TAMIAMI TRL 1, Venice, Florida 34293 US",https://locations.fivebelow.com/fl/venice/4127-s-tamiami-trl-1,-82.3959908218814,27.051411699212178,venice,fl
Century Town Center,null,17722226073,"5967 20th Street Vero Beach, Florida 32966 US",https://locations.fivebelow.com/fl/vero-beach/5967-20th-street,-80.45003617429916,27.636402887069863,vero-beach,fl
The Grove,null,18137716442,"6111 Wesley Grove Blvd Wesley Chapel, Florida 33544 US",https://locations.fivebelow.com/fl/wesley-chapel/6111-wesley-grove-blvd,-82.35145768543772,28.246014307632954,wesley-chapel,fl
Flamingo Crossings Town Center,null,14079653694,"102 Ruby Red Place Space C Winter Garden, Florida 34787 US",https://locations.fivebelow.com/fl/winter-garden/102-ruby-red-place,-81.6183214,28.3800011,winter-garden,fl
Winter Park,null,14076470128,"501 N. Orlando Ave Suite 210 Winter Park, Florida 32789 US",https://locations.fivebelow.com/fl/winter-park/501-n-orlando-ave,-81.3679634,28.6042637,winter-park,fl
Promenade at Tuskawilla,null,14075444034,"1425 Tuskawilla Rd #215 Winter Springs, Florida 32708 US",https://locations.fivebelow.com/fl/winter-springs/1425-tuskawilla-rd,-81.26483395144396,28.646245272020003,winter-springs,fl
Villages of Amelia,null,19044914960,"463935 East State Road 200 Yulee, Florida 32097 US",https://locations.fivebelow.com/fl/yulee/463935-east-state-road-200,-81.54171049570084,30.626773535587688,yulee,fl
Lakeside Marketplace,null,17707590857,"3384 Cobb Pkwy N Acworth, Georgia 30101 US",https://locations.fivebelow.com/ga/acworth/3384-cobb-pkwy-n,-84.68564526317732,34.03819809436873,acworth,ga
Gander Redevelopment,null,12292136148,"842 N Westover Blvd Albany, Georgia 31707 US",https://locations.fivebelow.com/ga/albany/842-n-westover-blvd,-84.21967499615633,31.61979057825372,albany,ga
Mansell Crossings,null,17706500677,"7591 North Point Parkway #800 Alpharetta, Georgia 30022 US",https://locations.fivebelow.com/ga/alpharetta/7591-north-point-parkway,-84.30628132362756,34.041898674010135,alpharetta,ga
Heritage Hills,null,16785027836,"1355 East-West Connector Ste Suite 103 Austell, Georgia 30106 US",https://locations.fivebelow.com/ga/austell/1355-east-west-connector-ste,-84.59629973641994,33.85763839442767,austell,ga
Barrow Crossings,null,16783698286,"916 Loganville Hwy Bethlehem, Georgia 30620 US",https://locations.fivebelow.com/ga/bethlehem/916-loganville-hwy,-83.74753557236795,33.94183243487693,bethlehem,ga
Canal Crossing,null,19125541648,"10450 Canal Crossing Brunswick, Georgia 31525 US",https://locations.fivebelow.com/ga/brunswick/10450-canal-crossing,-81.4941152,31.2338534,brunswick,ga
Marketplace at Millcreek,null,17708319405,"1600 Mall Of Georgia Blvd #1120 Buford, Georgia 30519 US",https://locations.fivebelow.com/ga/buford/1600-mall-of-georgia-blvd,-83.99414309876283,34.0644335490039,buford,ga
Indian Hills,null,17063090804,"474 Highway 53E Calhoun, Georgia 30701 US",https://locations.fivebelow.com/ga/calhoun/474-highway-53e,-84.92809460138852,34.475567174121444,calhoun,ga
Canton Marketplace,null,16789410345,"1810 Cumming Highway C100-C200 Canton, Georgia 30114 US",https://locations.fivebelow.com/ga/canton/1810-cumming-highway,-84.4609884,34.2353453,canton,ga
Chamblee Plaza,null,14702437261,"5480 Peachtree Blvd. Chamblee, Georgia 30341 US",https://locations.fivebelow.com/ga/chamblee/5480-peachtree-blvd,-84.29873738773153,33.89447116986979,chamblee,ga
Conyers Crossroads,null,17709185124,"1486 Dogwood Drive Conyers, Georgia 30013 US",https://locations.fivebelow.com/ga/conyers/1486-dogwood-drive,-83.994431,33.650607,conyers,ga
Cumming Town Center,null,17702056674,"2435 Market Place Blvd Cumming, Georgia 30041 US",https://locations.fivebelow.com/ga/cumming/2435-market-place-blvd,-84.1280051,34.1954049,cumming,ga
Dawson Marketplace,null,17067190247,"136 Marketplace Parkway #500 Dawsonville, Georgia 30534 US",https://locations.fivebelow.com/ga/dawsonville/136-marketplace-parkway,-84.05225061226844,34.35198749769856,dawsonville,ga
Douglas Square,null,19124561429,"1307 S Peterson Ave Space C Douglas, Georgia 31533 US",https://locations.fivebelow.com/ga/douglas/1307-s-peterson-ave,-82.853068,31.491473,douglas,ga
Douglasville Pavillion,null,17709492419,"2920 Chapel Hill Road Douglasville, Georgia 30135 US",https://locations.fivebelow.com/ga/douglasville/2920-chapel-hill-road,-84.73357437156494,33.7265737429161,douglasville,ga
Gwinnett Marketfair,null,14702437252,"3675 Satellite Boulevard Suite 200 Duluth, Georgia 30096 US",https://locations.fivebelow.com/ga/duluth/3675-satellite-boulevard,-84.1372969344684,33.95957344974014,duluth,ga
Camp Creek Marketplace,null,14046295954,"3612 Marketplace Boulevard East Point, Georgia 30344 US",https://locations.fivebelow.com/ga/east-point/3612-marketplace-boulevard,-84.5009185298955,33.66012454348662,east-point,ga
Old Orchard Square,null,17622533835,"220 Old Orchard Square Ellijay, Georgia 30540 US",https://locations.fivebelow.com/ga/ellijay/220-old-orchard-square,-84.47935562593356,34.674653191044605,ellijay,ga
Mullins Crossing,null,17068681353,"4225 Washington Rd Suite 2 Evans, Georgia 30809 US",https://locations.fivebelow.com/ga/evans/4225-washington-rd,-82.11857763558197,33.52768252811904,evans,ga
Fayette Pavillon,null,17704613438,"110 Pavilion Pkwy Fayetteville, Georgia 30214 US",https://locations.fivebelow.com/ga/fayetteville/110-pavilion-pkwy,-84.43915397879516,33.47862778370676,fayetteville,ga
North Lake Square,null,17707180965,"1154 Dawsonville Hwy Gainesville, Georgia 30501 US",https://locations.fivebelow.com/ga/gainesville/1154-dawsonville-hwy,-83.85796781540472,34.30573806136002,gainesville,ga
Oglethorpe Square,null,19123690912,"863 Oglethorpe Highway Hinesville, Georgia 31313 US",https://locations.fivebelow.com/ga/hinesville/863-oglethorpe-highway,-81.6014332,31.8233066,hinesville,ga
Hiram Pavilion,null,17704396490,"4904 Jimmy Lee Smith Parkway #120 Hiram, Georgia 30141 US",https://locations.fivebelow.com/ga/hiram/4904-jimmy-lee-smith-parkway,-84.74757318650819,33.8863902266218,hiram,ga
John's Creek Village,null,16785841092,"11720 Medlock Bridge Road Johns Creek, Georgia 30097 US",https://locations.fivebelow.com/ga/johns-creek/11720-medlock-bridge-road,-84.170136992376,34.06697926561189,johns-creek,ga
Town Center Commons,null,17704252849,"667 Ernest W Barrett Parkway Northwest Kennesaw, Georgia 30144 US",https://locations.fivebelow.com/ga/kennesaw/667-ernest-w-barrett-parkway-northwest,-84.5731199,34.0046618,kennesaw,ga
Sugarloaf Mills,null,16789248203,"5900 Sugarloaf Pkwy 154A Lawrenceville, Georgia 30043 US",https://locations.fivebelow.com/ga/lawrenceville/5900-sugarloaf-pkwy,-84.0807253204274,33.980752900844095,lawrenceville,ga
Village at Mableton,null,14702990136,"5590 Mableton Pkwy SW Suite 90 Mableton, Georgia 30126 US",https://locations.fivebelow.com/ga/mableton/5590-mableton-pkwy-sw,-84.57599173497027,33.81748299708054,mableton,ga
North Macon Promenade,null,14783458553,"1625 Bass Road Macon, Georgia 31210 US",https://locations.fivebelow.com/ga/macon/1625-bass-road,-83.7273039265026,32.92953439758234,macon,ga
East Cobb Providence Square,null,17705790313,"4101 Roswell Road Marietta, Georgia 30062 US",https://locations.fivebelow.com/ga/marietta/4101-roswell-road,-84.43303933557468,33.98173820681427,marietta,ga
McDonough,null,16785833467,"1550 Georgia 20 McDonough, Georgia 30253 US",https://locations.fivebelow.com/ga/mcdonough/1550-georgia-20,-84.19214392831043,33.42198160652855,mcdonough,ga
Milledgeville Mall,null,14783458569,"2400 North Columbia St. Suite A1 Milledgeville, Georgia 31061 US",https://locations.fivebelow.com/ga/milledgeville/2400-north-columbia-st,-83.25761363558195,33.10902571753412,milledgeville,ga
Deerfield Place,null,16785027591,"13069 GA-9 Suite 2520 Milton, Georgia 30004 US",https://locations.fivebelow.com/ga/milton/13069-ga-9,-84.2686871039784,34.101162912822126,milton,ga
Monroe Pavillion,null,14702844897,"732 Pavilion Parkway Monroe, Georgia 30656 US",https://locations.fivebelow.com/ga/monroe/732-pavilion-parkway,-83.73010551623848,33.80644352001002,monroe,ga
Newnan Pavilion,null,17702532803,"1078 Bullsboro Drive Newnan, Georgia 30265 US",https://locations.fivebelow.com/ga/newnan/1078-bullsboro-drive,-84.744014,33.3997749,newnan,ga
The Overlook,null,16783649915,"210 Line Creek Drive Peachtree City, Georgia 30269 US",https://locations.fivebelow.com/ga/peachtree-city/210-line-creek-drive,-84.60058523828411,33.39489481723398,peachtree-city,ga
Pooler Pointe,null,19124500505,"201 Tanger Outlets Blvd. Pooler, Georgia 31322 US",https://locations.fivebelow.com/ga/pooler/201-tanger-outlets-blvd,-81.24799912516596,32.137052625973446,pooler,ga
East Bend,null,17067194307,"80 Hicks Drive SE Rome, Georgia 30161 US",https://locations.fivebelow.com/ga/rome/80-hicks-drive-se,-85.1633224,34.2523103,rome,ga
Savannah Centre,null,19123524345,"7400 Abercorn St Suite 507 Savannah, Georgia 31406 US",https://locations.fivebelow.com/ga/savannah/7400-abercorn-st,-81.11214028339771,32.00705276600728,savannah,ga
Presidential Commons,null,17709791574,"1630 Scenic Highway Snellville, Georgia 30078 US",https://locations.fivebelow.com/ga/snellville/1630-scenic-highway,-84.009431,33.884274,snellville,ga
Old National Marketplace,null,16784703480,"6385 Old National Highway Suite 140 South Fulton, Georgia 30349 US",https://locations.fivebelow.com/ga/south-fulton/6385-old-national-highway,-84.47209840613424,33.58074571837137,south-fulton,ga
Statesboro Crossing,null,19124892681,"393 Henry Boulevard Statesboro, Georgia 30458 US",https://locations.fivebelow.com/ga/statesboro/393-henry-boulevard,-81.7613754,32.4298858,statesboro,ga
Stone Mountain Square,null,14702848795,"5370 US Highway 78 110 Stone Mountain, Georgia 30087 US",https://locations.fivebelow.com/ga/stone-mountain/5370-us-highway-78,-84.11787893928383,33.82175595154191,stone-mountain,ga
City Crossing,null,14782002893,"2620 Watson Blvd Suite 22 Warner Robins, Georgia 31093 US",https://locations.fivebelow.com/ga/warner-robins/2620-watson-blvd,-83.66834008806204,32.619855741693414,warner-robins,ga
Waycross Marketplace,null,19124008092,"2445 Memorial Drive Waycross, Georgia 31503 US",https://locations.fivebelow.com/ga/waycross/2445-memorial-drive,-82.32000409999999,31.1965015,waycross,ga
Woodstock,null,16784453178,"122 Woodstock Square Ave. Woodstock, Georgia 30189 US",https://locations.fivebelow.com/ga/woodstock/122-woodstock-square-ave,-84.54589715905172,34.08286137782095,woodstock,ga
Aurora Commons,null,16306012345,"1266 N Lake Street Aurora, Illinois 60506 US",https://locations.fivebelow.com/il/aurora/1266-n-lake-street,-88.3203625,41.7834671,aurora,il
Bloomingdale,null,16308938879,"346 West Army Trail Road #110 Bloomingdale, Illinois 60108 US",https://locations.fivebelow.com/il/bloomingdale/346-west-army-trail-road,-88.10853978540081,41.936940571430924,bloomingdale,il
Empire Crossing,null,13096611393,"1500 East Empire Street Bloomington, Illinois 61701 US",https://locations.fivebelow.com/il/bloomington/1500-east-empire-street,-88.9556921,40.4905557,bloomington,il
Bradley Commons,null,18159366254,"2066 Il-50 Bradley, Illinois 60914 US",https://locations.fivebelow.com/il/bradley/2066-il-50,-87.8475959,41.1889988,bradley,il
University Place,null,16183511809,"1312 E Main Street Carbondale, Illinois 62901 US",https://locations.fivebelow.com/il/carbondale/1312-e-main-street,-89.19068825022839,37.734808612248685,carbondale,il
"Champaign, IL",null,12173507715,"2008 North Prospect Ave. Champaign, Illinois 61822 US",https://locations.fivebelow.com/il/champaign/2008-north-prospect-ave,-88.25736450302291,40.140400471581785,champaign,il
Commons of Chicago Ridge,null,17084240665,"242 Commons Drive Chicago Ridge, Illinois 60415 US",https://locations.fivebelow.com/il/chicago-ridge/242-commons-drive,-87.78271372023772,41.71090093906783,chicago-ridge,il
Cicero Marketplace,null,17082226680,"3027 S. Cicero Ave Cicero, Illinois 60804 US",https://locations.fivebelow.com/il/cicero/3027-s-cicero-ave,-87.741601,41.8384861,cicero,il
Countryside Plaza,null,17084820975,"30 Countryside Plz Countryside, Illinois 60525 US",https://locations.fivebelow.com/il/countryside/30-countryside-plz,-87.87209529824293,41.781900865381246,countryside,il
Bohl Farm,null,18153566093,"5460 North West Highway 500 Crystal Lake, Illinois 60014 US",https://locations.fivebelow.com/il/crystal-lake/5460-north-west-highway,-88.3040211,42.2288932,crystal-lake,il
Decatur Marketplace,null,12175591841,"4705 E. Maryland St. Decatur, Illinois 62521 US",https://locations.fivebelow.com/il/decatur/4705-e-maryland-st,-88.88232201165677,39.817021172911865,decatur,il
Finley Square,null,16307051760,"1554 Butterfield Rd. Downers Grove, Illinois 60515 US",https://locations.fivebelow.com/il/downers-grove/1554-butterfield-rd,-88.02443874531656,41.83529256437465,downers-grove,il
Elmhurst Crossing,null,16309317292,"209 Kingery Hwy Elmhurst, Illinois 60126 US",https://locations.fivebelow.com/il/elmhurst/209-kingery-hwy,-87.96080698827089,41.89418018802557,elmhurst,il
Main Street Marketplace,null,17736944574,"2400 Main Street Evanston, Illinois 60201 US",https://locations.fivebelow.com/il/evanston/2400-main-street,-87.7076269,42.0317686,evanston,il
Evergreen Park Plaza,null,17082290274,"9680 South Western Avenue Evergreen Park, Illinois 60805 US",https://locations.fivebelow.com/il/evergreen-park/9680-south-western-avenue,-87.68455313988113,41.7165540254932,evergreen-park,il
Lincoln Plaza,null,16182777392,"5927 North Illinois St Fairview Heights, Illinois 62208 US",https://locations.fivebelow.com/il/fairview-heights/5927-north-illinois-st,-89.98757272049068,38.58652232984805,fairview-heights,il
The Meadows,null,18156558452,"1810B S West Ave Freeport, Illinois 61032 US",https://locations.fivebelow.com/il/freeport/1810b-s-west-ave,-89.63427970510308,42.27603476061429,freeport,il
Walmart Redevelopment,null,13093431904,"2049 National Boulevard Galesburg, Illinois 61401 US",https://locations.fivebelow.com/il/galesburg/2049-national-boulevard,-90.3805236,40.9729804,galesburg,il
Randall Square,null,16302080876,"1520 South Randall Road Geneva, Illinois 60134 US",https://locations.fivebelow.com/il/geneva/1520-south-randall-road,-88.34286890674593,41.87312707180549,geneva,il
Gurnee Mills,null,18478551583,"6170 W Grand Ave Space 799 Gurnee, Illinois 60031 US",https://locations.fivebelow.com/il/gurnee/6170-w-grand-ave,-87.95932239999999,42.3899294,gurnee,il
Hillside Town Center,null,17086220697,"170 S Mannheim Rd Hillside, Illinois 60162 US",https://locations.fivebelow.com/il/hillside/170-s-mannheim-rd,-87.88501120467087,41.86680053973811,hillside,il
Poplar Creek,null,18476450711,"2604 Sutton Road Hoffman Estates, Illinois 60192 US",https://locations.fivebelow.com/il/hoffman-estates/2604-sutton-road,-88.1899961,42.07218599999999,hoffman-estates,il
Washington Park Plaza,null,17089571921,"17920 South Halstead Homewood, Illinois 60430 US",https://locations.fivebelow.com/il/homewood/17920-south-halstead,-87.63837119510652,41.56416878038251,homewood,il
Jacksonville Crossing,null,12175591826,"901 W Morton Ave Suite 18A Jacksonville, Illinois 62650 US",https://locations.fivebelow.com/il/jacksonville/901-w-morton-ave,-90.24147082084943,39.72169575438429,jacksonville,il
Joliet Commons,null,18152541863,"2721 Plainfield Road Joliet, Illinois 60435 US",https://locations.fivebelow.com/il/joliet/2721-plainfield-road,-88.1547529,41.5774324,joliet,il
Shops at Kildeer,null,12243692723,"20505 N Rand Rd Kildeer, Illinois 60047 US",https://locations.fivebelow.com/il/kildeer/20505-n-rand-rd,-88.05032514293958,42.16263502958195,kildeer,il
Village Square Shopping Center,null,18475500843,"727 West Route 22 Lake Zurich, Illinois 60047 US",https://locations.fivebelow.com/il/lake-zurich/727-west-route-22,-88.10809841104509,42.1887720506173,lake-zurich,il
Machesney Park,null,17792013131,"1007 West Lane Rd Machesney Park, Illinois 61115 US",https://locations.fivebelow.com/il/machesney-park/1007-west-lane-rd,-89.03530459995909,42.363971283509954,machesney-park,il
McHenry Towne Centre,null,18153850067,"2346 N. Richmond Road McHenry, Illinois 60051 US",https://locations.fivebelow.com/il/mchenry/2346-n-richmond-road,-88.26459849360918,42.36027460057887,mchenry,il
Winston Plaza,null,17083441020,"1314 Winston Plaza Melrose Park, Illinois 60160 US",https://locations.fivebelow.com/il/melrose-park/1314-winston-plaza,-87.8503096308728,41.90643507635925,melrose-park,il
Crestwood Rivercrest Shopping Center,null,17083858207,"13210 South Cicero Avenue Midlothian, Illinois 60445 US",https://locations.fivebelow.com/il/midlothian/13210-south-cicero-avenue,-87.74132139881135,41.651146883535965,midlothian,il
Mount Prospect Plaza,null,18472428810,"1121 Mount Prospect Plaza Mount Prospect, Illinois 60056 US",https://locations.fivebelow.com/il/mount-prospect/1121-mount-prospect-plaza,-87.9188477,42.0677997,mount-prospect,il
Westridge Court,null,16305263633,"348 S. Route 59 Naperville, Illinois 60540 US",https://locations.fivebelow.com/il/naperville/348-s-route-59,-88.20375150283533,41.766148807763415,naperville,il
Four Flagg Shopping Center,null,18474700956,"8261 W. Golf Road Niles, Illinois 60714 US",https://locations.fivebelow.com/il/niles/8261-w-golf-road,-87.83373389871838,42.052698370608574,niles,il
Harlem Irving Plaza,null,17733779985,"4104 North Harlem Ave Norridge, Illinois 60706 US",https://locations.fivebelow.com/il/norridge/4104-north-harlem-ave,-87.80764,41.957513,norridge,il
North Riverside,null,17084425146,"7501 W Cermak Rd North Riverside, Illinois 60546 US",https://locations.fivebelow.com/il/north-riverside/7501-w-cermak-rd,-87.810676,41.847169,north-riverside,il
Shops at Oak Brook,null,16305263666,"2155 W, 22nd St Suite 7 Oak Brook, Illinois 60523 US",https://locations.fivebelow.com/il/oak-brook/2155-w-22nd-st,-87.96946659999999,41.8451402,oak-brook,il
Orland Towne Center,null,17084032185,"9275 W. 159th Street Orland Hills, Illinois 60487 US",https://locations.fivebelow.com/il/orland-hills/9275-w-159th-street,-87.8459574,41.5988682,orland-hills,il
Prairie Market Shopping Center,null,16305541924,"2480 Route 34 Oswego, Illinois 60543 US",https://locations.fivebelow.com/il/oswego/2480-route-34,-88.30675999034247,41.70157716067468,oswego,il
Deer Grove Center,null,18479910590,"663 East Dundee Rd Palatine, Illinois 60074 US",https://locations.fivebelow.com/il/palatine/663-east-dundee-rd,-88.02782390131614,42.13734425742385,palatine,il
Glen Hollow Shopping Center,null,13096932270,"5001 N Big Hollow Rd Peoria, Illinois 61615 US",https://locations.fivebelow.com/il/peoria/5001-n-big-hollow-rd,-89.64036972449429,40.748344211798944,peoria,il
Kensington Center,null,18155186535,"12736 IL-59 Plainfield, Illinois 60585 US",https://locations.fivebelow.com/il/plainfield/12736-il-59,-88.2060329,41.6507813,plainfield,il
Prairie Crossing Shopping Center,null,12172287221,"6008 Broadway Street Quincy, Illinois 62305 US",https://locations.fivebelow.com/il/quincy/6008-broadway-street,-91.32228254232791,39.932001184479,quincy,il
Forest Plaza (Rockford),null,18153941870,"6403 East State Street Rockford, Illinois 61108 US",https://locations.fivebelow.com/il/rockford/6403-east-state-street,-88.99182849570082,42.265381210908735,rockford,il
Woodfield Village Green,null,18479950415,"1468 E Golf Rd Schaumburg, Illinois 60173 US",https://locations.fivebelow.com/il/schaumburg/1468-e-golf-rd,-88.04207,42.0524106,schaumburg,il
Twin Oaks Shopping Center,null,13093844009,"2001 5th St, Suite 1 Silvis, Illinois 61282 US",https://locations.fivebelow.com/il/silvis/2001-5th-st,-90.42153656483946,41.4896309834971,silvis,il
Village Crossing,null,18473290508,"5415 W. Touhy Avenue Skokie, Illinois 60077 US",https://locations.fivebelow.com/il/skokie/5415-w-touhy-avenue,-87.76566618552783,42.01052538839353,skokie,il
South Elgin Commons,null,12243466390,"482 Randall Rd South Elgin, Illinois 60177 US",https://locations.fivebelow.com/il/south-elgin/482-randall-rd,-88.34349,41.9842667,south-elgin,il
Main Street Commons,null,16305136437,"3547 East Main Street St. Charles, Illinois 60174 US",https://locations.fivebelow.com/il/st-charles/3547-east-main-street,-88.2741197,41.9191932,st-charles,il
Kmart Plaza,null,18156557396,"2901 E Lincoln Highway Suite A Sterling, Illinois 61081 US",https://locations.fivebelow.com/il/sterling/2901-e-lincoln-highway,-89.66103520351952,41.80447757466858,sterling,il
Brookside Marketplace,null,18154648268,"7400 West 191st Street Tinley Park, Illinois 60487 US",https://locations.fivebelow.com/il/tinley-park/7400-west-191st-street,-87.79827018650815,41.548626860424285,tinley-park,il
Hawthorn Hills Fashion Center,null,18475490542,"701 N Milwaukee Ave Ste 302 Vernon Hills, Illinois 60061 US",https://locations.fivebelow.com/il/vernon-hills/701-n-milwaukee-ave,-87.94134276554539,42.23945251057189,vernon-hills,il
Danada Square West,null,16307037619,"110 Danada Square W Wheaton, Illinois 60189 US",https://locations.fivebelow.com/il/wheaton/110-danada-square-w,-88.10823959194977,41.830638928589096,wheaton,il
Wood River Plaza,null,16183561961,"672 Wesley Drive Wood River, Illinois 62095 US",https://locations.fivebelow.com/il/wood-river/672-wesley-drive,-90.0689450313175,38.87221456170687,wood-river,il
Woodgrove Festival,null,16309854626,"1001 W. 75th Street #171 Woodridge, Illinois 60517 US",https://locations.fivebelow.com/il/woodridge/1001-w-75th-street,-88.01698831785393,41.74971381757164,woodridge,il
South Anderson Crossing,null,17652047525,"5439 S Scatterfield Road Anderson, Indiana 46013 US",https://locations.fivebelow.com/in/anderson/5439-s-scatterfield-road,-85.65332723802871,40.0604028679541,anderson,in
Country Fair Shopping Center,null,12602046217,"1801 North Wayne St Suite 111 Angola, Indiana 46703 US",https://locations.fivebelow.com/in/angola/1801-north-wayne-st,-85.00139406946064,41.65516701170259,angola,in
Avon Commons,null,13174018516,"10349 East US Highway 36 Avon, Indiana 46123 US",https://locations.fivebelow.com/in/avon/10349-east-us-highway-36,-86.3394981,39.7605755,avon,in
Whitehall Crossing,null,18123398328,"140 N Gates Drive Bloomington, Indiana 47404 US",https://locations.fivebelow.com/in/bloomington/140-n-gates-drive,-86.57508742598259,39.16667619648779,bloomington,in
Brownsburg Square,null,14632428273,"905 North Green Brownsburg, Indiana 46112 US",https://locations.fivebelow.com/in/brownsburg/905-north-green,-86.3921452323742,39.855540536930924,brownsburg,in
Village Park Plaza,null,13178444502,"1950 - 4 East Greyhound Pass Carmel, Indiana 46033 US",https://locations.fivebelow.com/in/carmel/1950-4-east-greyhound-pass,-86.12428081691462,40.0057065260796,carmel,in
Columbus Center,null,18123750496,"3060 Columbus Center Columbus, Indiana 47203 US",https://locations.fivebelow.com/in/columbus/3060-columbus-center,-85.88696232044606,39.22098291343815,columbus,in
Indiana Premium Outlets,null,18124165675,"11691 N. Executive Drive Suite B100A Edinburgh, Indiana 46124 US",https://locations.fivebelow.com/in/edinburgh/11691-n-executive-drive,-85.96191780061169,39.30867895206407,edinburgh,in
Shoppes on Six,null,15742069365,"205 Country Road 6E Elkhart, Indiana 46514 US",https://locations.fivebelow.com/in/elkhart/205-country-road-6e,-85.97491201719663,41.72276195754056,elkhart,in
Evansville Pavilion,null,18126025861,"6501 East Lloyd Expressway Evansville, Indiana 47715 US",https://locations.fivebelow.com/in/evansville/6501-east-lloyd-expressway,-87.472272,37.9735945,evansville,in
Franklin Commons,null,14632341754,"1040 N Morton Street Franklin, Indiana 46131 US",https://locations.fivebelow.com/in/franklin/1040-n-morton-street,-86.06701826580242,39.490442761210176,franklin,in
The Willows and Goshen Shops,null,15748754761,"3822 Midway Road Goshen, Indiana 46526 US",https://locations.fivebelow.com/in/goshen/3822-midway-road,-85.90390771854021,41.621741200632435,goshen,in
Greenwood Shopping Center,null,13178817037,"8740 U.S. 31 Greenwood, Indiana 46227 US",https://locations.fivebelow.com/in/greenwood/8740-us-31,-86.13078716355504,39.63885216852662,greenwood,in
Marina District Gateway,null,12193322216,"1035 5th Avenue Hammond, Indiana 46320 US",https://locations.fivebelow.com/in/hammond/1035-5th-avenue,-87.517596,41.6945018,hammond,in
Highland Grove Shopping Center,null,12199242843,"10335 Indianapolis Boulevard Highland, Indiana 46322 US",https://locations.fivebelow.com/in/highland/10335-indianapolis-boulevard,-87.467993682209,41.52614185520604,highland,in
Jeffersonville Town Center,null,18122851081,"4241 Town Center Blvd Jeffersonville, Indiana 47130 US",https://locations.fivebelow.com/in/jeffersonville/4241-town-center-blvd,-85.74876349475846,38.32797637924279,jeffersonville,in
Markland Plaza,null,17654571029,"1423 S. Reed Road Kokomo, Indiana 46902 US",https://locations.fivebelow.com/in/kokomo/1423-s-reed-road,-86.10898551904285,40.469660079834775,kokomo,in
Lafayette Pavilions,null,17654461775,"100 S Creasy Lane Lafayette, Indiana 47905 US",https://locations.fivebelow.com/in/lafayette/100-s-creasy-lane,-86.84150605733606,40.415972146663044,lafayette,in
Madison Plaza,null,19303481712,"2528 Michigan Road Suite 1 Madison, Indiana 47250 US",https://locations.fivebelow.com/in/madison/2528-michigan-road,-85.38487599999999,38.773913,madison,in
Merrillville Plaza,null,12197939529,"1962-1988 E. 80th Street Merrillville, Indiana 46410 US",https://locations.fivebelow.com/in/merrillville/1962-1988-e-80th-street,-87.31179638819208,41.47320339034544,merrillville,in
Dunes Plaza Shopping Center,null,12198798431,"220 Dunes Plaza Michigan City, Indiana 46360 US",https://locations.fivebelow.com/in/michigan-city/220-dunes-plaza,-86.8989935827679,41.678415098854614,michigan-city,in
University Center,null,15742730506,"6502 Grape Road Mishawaka, Indiana 46544 US",https://locations.fivebelow.com/in/mishawaka/6502-grape-road,-86.1853827,41.7181872,mishawaka,in
Muncie Marketplace,null,17652878021,"636 East McGallard Road Muncie, Indiana 47305 US",https://locations.fivebelow.com/in/muncie/636-east-mcgallard-road,-85.3798171,40.2203066,muncie,in
The Marketplace at Saxony,null,13175930562,"14120 Brooks School Road Suite 140 Noblesville, Indiana 46060 US",https://locations.fivebelow.com/in/noblesville/14120-brooks-school-road,-85.94194451840269,39.98887659634758,noblesville,in
Plainfield Commons,null,13178375133,"2685 East Main Street Plainfield, Indiana 46168 US",https://locations.fivebelow.com/in/plainfield/2685-east-main-street,-86.35195467361069,39.71646431599081,plainfield,in
South Towne,null,18122341663,"3692 S US Highway 41 S. Terre Haute, Indiana 47802 US",https://locations.fivebelow.com/in/terre-haute/3692-s-us-highway-41-s,-87.4135368940544,39.42140452251304,terre-haute,in
Porter's Vale,null,12194625512,"110 Porters Vale Blvd Valparaiso, Indiana 46383 US",https://locations.fivebelow.com/in/valparaiso/110-porters-vale-blvd,-87.01520708465574,41.470401960905974,valparaiso,in
The Marketplace at Anson,null,13177692142,"6140 Mills Drive Whitestown, Indiana 46075 US",https://locations.fivebelow.com/in/whitestown/6140-mills-drive,-86.3515943,39.951615,whitestown,in
Kmart Redevelopment,null,15155166935,"301 S 16th St. Ames, Iowa 50010 US",https://locations.fivebelow.com/ia/ames/301-s-16th-st,-93.6125694,42.0083722,ames,ia
Kohl's Plaza,null,15157093316,"1719 SE Delaware Ave Ankeny, Iowa 50021 US",https://locations.fivebelow.com/ia/ankeny/1719-se-delaware-ave,-93.57801499420214,41.71221848836879,ankeny,ia
Collins Crossing,null,13193734435,"180 Collins Road Northeast Cedar Rapids, Iowa 52402 US",https://locations.fivebelow.com/ia/cedar-rapids/180-collins-road-northeast,-91.6271974,42.0292891,cedar-rapids,ia
Coral Ridge Mall,null,13196001235,"1451 Coral Ridge Avenue Coralville, Iowa 52241 US",https://locations.fivebelow.com/ia/coralville/1451-coral-ridge-avenue,-91.6047532,41.6915175,coralville,ia
Metro Crossing,null,17123669747,"3815 Metro Drive Suite 300 Council Bluffs, Iowa 51501 US",https://locations.fivebelow.com/ia/council-bluffs/3815-metro-drive,-95.83607803802875,41.2205376792422,council-bluffs,ia
Merle Hay Mall,null,15152985405,"3850 Merle Hay Rd #520 Des Moines, Iowa 50310 US",https://locations.fivebelow.com/ia/des-moines/3850-merle-hay-rd,-93.6997855,41.6305899,des-moines,ia
Asbury Plaza,null,15635825424,"2535 NW Arterial Dubuque, Iowa 52002 US",https://locations.fivebelow.com/ia/dubuque/2535-nw-arterial,-90.74440536441801,42.519131861561526,dubuque,ia
Willow Creek Commons,null,16412550147,"458 Indianhead Drive Mason City, Iowa 50401 US",https://locations.fivebelow.com/ia/mason-city/458-indianhead-drive,-93.26806715051343,43.146574671549445,mason-city,ia
Quincy Plaza,null,16412550450,"1111 N Quincy Avenue #101-109, Ottumwa, Iowa 52501 US",https://locations.fivebelow.com/ia/ottumwa/1111-n-quincy-avenue,-92.4404659286937,41.016859114465504,ottumwa,ia
Crossroads Commons,null,13193337078,"1419 Flammang Dr. Waterloo, Iowa 50702 US",https://locations.fivebelow.com/ia/waterloo/1419-flammang-dr,-92.32813404110449,42.46142154874049,waterloo,ia
Watertower Place,null,15152219626,"4100 University Avenue West Des Moines, Iowa 50266 US",https://locations.fivebelow.com/ia/west-des-moines/4100-university-avenue,-93.7590802,41.5985745,west-des-moines,ia
Derby Marketplace,null,13162025634,"1936 N Rock Rd suite 800 Derby, Kansas 67037 US",https://locations.fivebelow.com/ks/derby/1936-n-rock-rd,-97.24130586648465,37.56726424991417,derby,ks
Schulman Crossing,null,16202750169,"1740 Larue Road Garden City, Kansas 67846 US",https://locations.fivebelow.com/ks/garden-city/1740-larue-road,-100.834697,37.9803671,garden-city,ks
Wyandotte Plaza,null,19132998266,"7734 State Ave Kansas City, Kansas 66112 US",https://locations.fivebelow.com/ks/kansas-city/7734-state-ave,-94.7594791,39.1174965,kansas-city,ks
JCP Redevelopment,null,17857491478,"3311 S Iowa Street Lawrence, Kansas 66046 US",https://locations.fivebelow.com/ks/lawrence/3311-s-iowa-street,-95.2620328,38.9236603,lawrence,ks
Manhattan,null,17855398630,"417 East Poyntz Avenue Manhattan, Kansas 66502 US",https://locations.fivebelow.com/ks/manhattan/417-east-poyntz-avenue,-96.55223233268379,39.18522702459845,manhattan,ks
Merriam Town Center,null,19134269388,"5808 Antioch Rd Merriam, Kansas 66202 US",https://locations.fivebelow.com/ks/merriam/5808-antioch-rd,-94.68919637913321,39.024356843638834,merriam,ks
Olathe Pointe Shopping Center,null,19133935420,"14635 W 119th St Olathe, Kansas 66062 US",https://locations.fivebelow.com/ks/olathe/14635-w-119th-st,-94.75653299734415,38.91050466075716,olathe,ks
Overland Park,null,19133618104,"12070 Metcalf Ave. Overland Park, Kansas 66213 US",https://locations.fivebelow.com/ks/overland-park/12070-metcalf-ave,-94.66865318276243,38.910033194702514,overland-park,ks
Mid State Plaza,null,17858251986,"2450 S 9th St. Salina, Kansas 67401 US",https://locations.fivebelow.com/ks/salina/2450-s-9th-st,-97.6155962588868,38.79563586044278,salina,ks
Shawnee Station,null,19133725428,"15300 Shawnee Mission Pkwy Shawnee, Kansas 66217 US",https://locations.fivebelow.com/ks/shawnee/15300-shawnee-mission-pkwy,-94.76373439621125,39.01030001739606,shawnee,ks
Wanamaker Shopping Center,null,17853290080,"1740 SW Wanamaker Topeka, Kansas 66604 US",https://locations.fivebelow.com/ks/topeka/1740-sw-wanamaker,-95.758609,39.034979,topeka,ks
Ashland Town Center,null,16066440016,"500 Winchester Ave Suite 372 Ashland, Kentucky 41101 US",https://locations.fivebelow.com/ky/ashland/500-winchester-ave,-82.65367686455554,38.48375671010994,ashland,ky
Campbell Lane Shopping Center,null,12707828119,"1865 Campbell Lane Bowling Green, Kentucky 42104 US",https://locations.fivebelow.com/ky/bowling-green/1865-campbell-lane,-86.4286626,36.9533594,bowling-green,ky
Mall Park,null,12702090913,"1970 N Dixie Highway Elizabethtown, Kentucky 42701 US",https://locations.fivebelow.com/ky/elizabethtown/1970-n-dixie-highway,-85.89154531182167,37.738233450748645,elizabethtown,ky
Florence Square,null,18592820286,"7665 Mall Road Florence, Kentucky 41042 US",https://locations.fivebelow.com/ky/florence/7665-mall-road,-84.65589992432444,38.99800503581767,florence,ky
Parkside Center,null,15026951991,"7000 John Davis Drive Frankfort, Kentucky 40601 US",https://locations.fivebelow.com/ky/frankfort/7000-john-davis-drive,-84.81633252876662,38.17647544995437,frankfort,ky
Barren River Plaza,null,12702977864,"358 N L Roger Wells Blvd Glasgow, Kentucky 42141 US",https://locations.fivebelow.com/ky/glasgow/358-n-l-roger-wells-blvd,-85.9273637,37.0079207,glasgow,ky
Hopkinsville Towne Center,null,12708875614,"4829 Fort Campbell Blvd Hopkinsville, Kentucky 42240 US",https://locations.fivebelow.com/ky/hopkinsville/4829-fort-campbell-blvd,-87.47426222453691,36.814713339637244,hopkinsville,ky
London Marketplace,null,16062594541,"1710 West Highway 192 Suite 200 London, Kentucky 40741 US",https://locations.fivebelow.com/ky/london/1710-west-highway-192,-84.08905099270078,37.106304783519036,london,ky
Shoppes at Murray,null,12705740099,"638 N 12th St. Murray, Kentucky 42071 US",https://locations.fivebelow.com/ky/murray/638-n-12th-st,-88.31295557724319,36.62022650722373,murray,ky
Kentucky Oaks Mall,null,12702974835,"5101 Hinkleville Rd Unit #503 Paducah, Kentucky 42001 US",https://locations.fivebelow.com/ky/paducah/5101-hinkleville-rd,-88.68901035242766,37.07997251878577,paducah,ky
Mayo Plaza,null,16064672229,"367 N. Mayo Trail Paintsviile, Kentucky 41240 US",https://locations.fivebelow.com/ky/paintsviile/367-n-mayo-trail,-82.8174536,37.82132259999999,paintsviile,ky
Pikeville Commons,null,16063851801,"120 Justice Way Suite 150 Pikeville, Kentucky 41501 US",https://locations.fivebelow.com/ky/pikeville/120-justice-way,-82.541771,37.507834,pikeville,ky
Winchester Plaza,null,18594121809,"7 Winchester Plaza Suite F-1 Winchester, Kentucky 40391 US",https://locations.fivebelow.com/ky/winchester/7-winchester-plaza,-84.211606,38.0084225,winchester,ky
Alexandria Commons,null,13182097913,"2629-2639 S MacArthur Dr Alexandria, Louisiana 71301 US",https://locations.fivebelow.com/la/alexandria/2629-2639-s-macarthur-dr,-92.46013515650367,31.270382852805305,alexandria,la
Siegen Plaza,null,12253684890,"6865 Siegen Lane A Baton Rouge, Louisiana 70809 US",https://locations.fivebelow.com/la/baton-rouge/6865-siegen-lane-a,-91.06028875816116,30.38555117156198,baton-rouge,la
Dement Crossing,null,13184133828,"1041 George Dement Blvd Bossier City, Louisiana 71111 US",https://locations.fivebelow.com/la/bossier-city/1041-george-dement-blvd,-93.70817,32.55243,bossier-city,la
River Chase,null,19858935295,"69328 Highway 21 Covington, Louisiana 70433 US",https://locations.fivebelow.com/la/covington/69328-highway-21,-90.13877593005941,30.44341909484541,covington,la
Juban Crossing,null,12252381761,"10130 Crossing Way Suite 360 Denham Springs, Louisiana 70726 US",https://locations.fivebelow.com/la/denham-springs/10130-crossing-way,-90.920725,30.468374,denham-springs,la
Cornerview Plaza,null,12254011880,"115 S Airline Hwy Suite D Gonzales, Louisiana 70737 US",https://locations.fivebelow.com/la/gonzales/115-s-airline-hwy,-90.90965938028717,30.23180847753619,gonzales,la
Hammond Square,null,19852988278,"1918 Hammond Square Drive Hammond, Louisiana 70403 US",https://locations.fivebelow.com/la/hammond/1918-hammond-square-drive,-90.4590728,30.4828962,hammond,la
Westbank Village,null,15045171633,"1500 Westbank Expressway Suite C Harvey, Louisiana 70058 US",https://locations.fivebelow.com/la/harvey/1500-westbank-expressway,-90.06355253493558,29.90369952614567,harvey,la
Houma Crossing,null,19858768460,"1779 Martin Luther King Blvd Houma, Louisiana 70360 US",https://locations.fivebelow.com/la/houma/1779-martin-luther-king-blvd,-90.75951119804647,29.615426578905424,houma,la
Prien Lake,null,13372239239,"538a West Prien Lake Rd Lake Charles, Louisiana 70601 US",https://locations.fivebelow.com/la/lake-charles/538a-west-prien-lake-rd,-93.2258676,30.1992503,lake-charles,la
Northlake Shopping Center,null,19852361871,"1818 N Causeway Blvd Suite 2 Mandeville, Louisiana 70471 US",https://locations.fivebelow.com/la/mandeville/1818-n-causeway-blvd,-90.09232011656762,30.393784059232736,mandeville,la
Westgate SC,null,15045769233,"8855 Veterans Memorial Boulevard suite B Metairie, Louisiana 70003 US",https://locations.fivebelow.com/la/metairie/8855-veterans-memorial-boulevard,-90.22693226345467,30.00725593377999,metairie,la
Pecanland Plaza,null,13183273259,"4429 Pecanland Mall Dr. Monroe, Louisiana 71203 US",https://locations.fivebelow.com/la/monroe/4429-pecanland-mall-dr,-92.06736808465575,32.4990546704684,monroe,la
Lagniappe Village,null,13372825053,"1102 E Admiral Doyle Dr Suite 1-E New Iberia, Louisiana 70560 US",https://locations.fivebelow.com/la/new-iberia/1102-e-admiral-doyle-dr,-91.82003097422238,29.982720935120565,new-iberia,la
Ruston Marketplace,null,13182518386,"1226 Woodward Avenue Ruston, Louisiana 71270 US",https://locations.fivebelow.com/la/ruston/1226-woodward-avenue,-92.6555137,32.5423849,ruston,la
Eastgate Shopping Center,null,13187975790,"1712 E. 70th Street Shreveport, Louisiana 71105 US",https://locations.fivebelow.com/la/shreveport/1712-e-70th-street,-93.7166093,32.4454202,shreveport,la
Fremaux Towne Center,null,19856497633,"620 Town Center Parkway Slidell, Louisiana 70458 US",https://locations.fivebelow.com/la/slidell/620-town-center-parkway,-89.7608015,30.267371,slidell,la
Zachary Plaza,null,12253203870,"5514 Main St Unit 1A Zachary, Louisiana 70791 US",https://locations.fivebelow.com/la/zachary/5514-main-st,-91.14652350607594,30.64577847751273,zachary,la
Marketplace at Augusta,null,12076210078,"80 Steven King Dr. Suite 3 Augusta, Maine 04330 US",https://locations.fivebelow.com/me/augusta/80-steven-king-dr,-69.78480200000001,44.348535130722524,augusta,me
Mallside Plaza,null,12077610302,"198 Maine Mall Rd South Portland, Maine 04106 US",https://locations.fivebelow.com/me/south-portland/198-maine-mall-rd,-70.33264757310303,43.63981236106176,south-portland,me
Topsham Crossing,null,12075358981,"131 Topsham Fair Mall Rd Topsham, Maine 04086 US",https://locations.fivebelow.com/me/topsham/131-topsham-fair-mall-rd,-69.98456943435859,43.93245213677021,topsham,me
Festival at Riva,null,14108978401,"2313 Forest Drive Annapolis, Maryland 21401 US",https://locations.fivebelow.com/md/annapolis/2313-forest-drive,-76.54379762086677,38.97825702125844,annapolis,md
First Colony Center,null,13018622850,"45033 Worth Ave California, Maryland 20619 US",https://locations.fivebelow.com/md/california/45033-worth-ave,-76.5187481,38.3009222,california,md
West Plaza,null,14107474898,"6459 Baltimore National Pike Catonsville, Maryland 21228 US",https://locations.fivebelow.com/md/catonsville/6459-baltimore-national-pike,-76.76024001471518,39.284689232396815,catonsville,md
Woodyard Crossing,null,13018774075,"8775 Branch Ave Clinton, Maryland 20735 US",https://locations.fivebelow.com/md/clinton/8775-branch-ave,-76.8893525,38.7695199,clinton,md
Hunt Valley Town Centre,null,14103291524,"118 Shawan Road M1 Cockeysville, Maryland 21030 US",https://locations.fivebelow.com/md/cockeysville/118-shawan-road-m1,-76.6555237,39.4987855,cockeysville,md
South Cumberland Shopping Center,null,13014795755,"1050 W Industrial Blvd Suite #10 Cumberland, Maryland 21502 US",https://locations.fivebelow.com/md/cumberland/1050-w-industrial-blvd,-78.75023328526744,39.631370732870586,cumberland,md
Easton Marketplace,null,14109273579,"219 Marlboro Ave Suite 31 Easton, Maryland 21601 US",https://locations.fivebelow.com/md/easton/219-marlboro-ave,-76.079907529955,38.78316536388355,easton,md
Gateway Overlook,null,14103120444,"8261 Gateway Overlook Dr Elkridge, Maryland 21075 US",https://locations.fivebelow.com/md/elkridge/8261-gateway-overlook-dr,-76.79339346990582,39.18425405477211,elkridge,md
St. Johns Plaza,null,14435897875,"9150 Baltimore National Pike Suite 1B Suite 1B Ellicott City, Maryland 21042 US",https://locations.fivebelow.com/md/ellicott-city/9150-baltimore-national-pike-suite-1b,-76.82859908834325,39.27770780000003,ellicott-city,md
Middlesex Shopping Center,null,14107343216,"1340 Essex Blvd Essex, Maryland 21221 US",https://locations.fivebelow.com/md/essex/1340-essex-blvd,-76.46169680788377,39.317014803674994,essex,md
Centre at Forestville,null,13017361281,"3269 Donnell Dr Forestville, Maryland 20747 US",https://locations.fivebelow.com/md/forestville/3269-donnell-dr,-76.88657683121338,38.847652095250595,forestville,md
Waugh Chapel Towne Centre,null,14104511472,"1417 South Main Chapel Gambrills, Maryland 21054 US",https://locations.fivebelow.com/md/gambrills/1417-south-main-chapel,-76.6878164,39.0335053,gambrills,md
Germantown Commons,null,13015404213,"12970 Middlebrook Road Germantown, Maryland 20874 US",https://locations.fivebelow.com/md/germantown/12970-middlebrook-road,-77.27134999999998,39.180091129331515,germantown,md
Chesapeake Square,null,14107660364,"6714-A2 Ritchie Highway Glen Burnie, Maryland 21061 US",https://locations.fivebelow.com/md/glen-burnie/6714-a2-ritchie-highway,-76.6155679,39.1925382,glen-burnie,md
Beltway Plaza,null,13013452670,"6000 Greenbelt Road Greenbelt, Maryland 20770 US",https://locations.fivebelow.com/md/greenbelt/6000-greenbelt-road,-76.91021494865618,38.99899441634637,greenbelt,md
Shoppes at Hagerstown,null,13017667956,"18057 Garland Groh Blvd Hagerstown, Maryland 21740 US",https://locations.fivebelow.com/md/hagerstown/18057-garland-groh-blvd,-77.74366164418029,39.66111764852949,hagerstown,md
Arundel Mills Mall,null,14103798357,"7000 Arundel Mills Circle #136 Hanover, Maryland 21076 US",https://locations.fivebelow.com/md/hanover/7000-arundel-mills-circle,-76.725045,39.155372,hanover,md
Mall at Prince Georges,null,13018530647,"3500 East West Highway Hyattsville, Maryland 20782 US",https://locations.fivebelow.com/md/hyattsville/3500-east-west-highway,-76.96061263816443,38.96827216762318,hyattsville,md
Laurel Lakes Centre,null,13014905680,"14260A Baltimore Avenue Laurel, Maryland 20707 US",https://locations.fivebelow.com/md/laurel/14260a-baltimore-avenue,-76.86352504662705,39.08616016385456,laurel,md
Nottingham Commons,null,14109313703,"5275 Campbell Blvd Nottingham, Maryland 21236 US",https://locations.fivebelow.com/md/nottingham/5275-campbell-blvd,-76.453155300177,39.367529173094304,nottingham,md
White Marlin Mall,null,14102137791,"12641 Ocean Gateway Ocean City, Maryland 21842 US",https://locations.fivebelow.com/md/ocean-city/12641-ocean-gateway,-75.108502,38.338474,ocean-city,md
Mill Station,null,14106570961,"10246 Mill Run Circle Owings Mills, Maryland 21117 US",https://locations.fivebelow.com/md/owings-mills/10246-mill-run-circle,-76.78897981269131,39.40555500356929,owings-mills,md
Pasadena Crossroads,null,14108740378,"8042 Ritchie Hwy Suite 4 Pasadena, Maryland 21122 US",https://locations.fivebelow.com/md/pasadena/8042-ritchie-hwy,-76.59246104233439,39.12554983084232,pasadena,md
Fox Run Shopping Center,null,14433841276,"855 N Solomons Island Rd Prince Frederick, Maryland 20678 US",https://locations.fivebelow.com/md/prince-frederick/855-n-solomons-island-rd,-76.595513,38.5564253,prince-frederick,md
Congressional North,null,13018818385,"1503 Rockville Pike Rockville, Maryland 20852 US",https://locations.fivebelow.com/md/rockville/1503-rockville-pike,-77.1283989,39.0649027,rockville,md
The Center at Golden Ring,null,14106860109,"8640 Pulaski Highway Rosedale, Maryland 21237 US",https://locations.fivebelow.com/md/rosedale/8640-pulaski-highway,-76.487315,39.334968,rosedale,md
The Commons,null,14104176647,"127 East North Pointe Drive D Salisbury, Maryland 21804 US",https://locations.fivebelow.com/md/salisbury/127-east-north-pointe-drive-d,-75.5597563,38.4165327,salisbury,md
Park Plaza,null,14105447526,"558M Gov Ritchie Highway Severna Park, Maryland 21146 US",https://locations.fivebelow.com/md/severna-park/558m-gov-ritchie-highway,-76.54724763558198,39.07626532887742,severna-park,md
Eldersburg Crossing,null,14105491930,"1320 Liberty Rd Sykesville, Maryland 21784 US",https://locations.fivebelow.com/md/sykesville/1320-liberty-rd,-76.94892318650818,39.40528798534455,sykesville,md
Goucher Commons,null,14108250413,"803 Goucher Blvd Towson, Maryland 21204 US",https://locations.fivebelow.com/md/towson/803-goucher-blvd,-76.58510613942042,39.397948491316384,towson,md
Largo Plaza,null,13013240106,"10486 Campus Way South Upper Marlboro, Maryland 20774 US",https://locations.fivebelow.com/md/upper-marlboro/10486-campus-way-south,-76.82699523663445,38.89543293212885,upper-marlboro,md
The Shops at Waldorf,null,13018850650,"2935 Festival Way Waldorf, Maryland 20601 US",https://locations.fivebelow.com/md/waldorf/2935-festival-way,-76.91116895176822,38.630734757680685,waldorf,md
Crossroads Square,null,14108573817,"625C Baltimore Blvd. Westminster, Maryland 21157 US",https://locations.fivebelow.com/md/westminster/625c-baltimore-blvd,-76.9739135,39.5632829,westminster,md
Westfield Wheaton Shopping Center,null,12402328233,"11160 Veirs Mill Rd Suite B216 Wheaton, Maryland 20902 US",https://locations.fivebelow.com/md/wheaton/11160-veirs-mill-rd,-77.05505334249617,39.036797236719444,wheaton,md
Marketplace at Braintree,null,17813569061,"255 Grossman Dr Braintree, Massachusetts 02184 US",https://locations.fivebelow.com/ma/braintree/255-grossman-dr,-70.99837761719044,42.21204234504433,braintree,ma
Campus Plaza,null,15089888038,"233 Broad St Unit #10 Bridgewater, Massachusetts 02324 US",https://locations.fivebelow.com/ma/bridgewater/233-broad-st,-70.97281651288013,41.99410210000002,bridgewater,ma
Crescent Plaza,null,17742562891,"715 Crescent St. Suite 12 Brockton, Massachusetts 02302 US",https://locations.fivebelow.com/ma/brockton/715-crescent-st,-70.98980001104508,42.08057622955663,brockton,ma
Burlington Crossroads,null,17814976651,"34 Cambridge Street Unit 130 Burlington, Massachusetts 01803 US",https://locations.fivebelow.com/ma/burlington/34-cambridge-street,-71.18597025822879,42.484494919651034,burlington,ma
Chicopee Marketplace,null,14135933175,"591 Memorial Drive Chicopee, Massachusetts 01020 US",https://locations.fivebelow.com/ma/chicopee/591-memorial-drive,-72.57203532638931,42.17411103658034,chicopee,ma
Liberty Tree Mall,null,19787743990,"100 Independence Way Danvers, Massachusetts 01923 US",https://locations.fivebelow.com/ma/danvers/100-independence-way,-70.9399896,42.5533127,danvers,ma
Dartmouth Mall,null,15089991397,"85 North Dartmouth Mall Dartmouth, Massachusetts 02747 US",https://locations.fivebelow.com/ma/dartmouth/85-north-dartmouth-mall,-70.9905794,41.6411204,dartmouth,ma
Dedham Mall,null,17813267604,"340 Providence Highway Dedham, Massachusetts 02026 US",https://locations.fivebelow.com/ma/dedham/340-providence-highway,-71.16875882209013,42.254292338470165,dedham,ma
Gateway Center,null,16173870103,"13 Mystic View Road Everett, Massachusetts 02149 US",https://locations.fivebelow.com/ma/everett/13-mystic-view-road,-71.06791763558198,42.399841714269776,everett,ma
SouthCoast Marketplace,null,17742945054,"510 William Canning Blvd Fall River, Massachusetts 02722 US",https://locations.fivebelow.com/ma/fall-river/510-william-canning-blvd,-71.15721394575502,41.67222200000001,fall-river,ma
Shoppers World,null,15086550256,"1 Worcester Rd Framingham, Massachusetts 01701 US",https://locations.fivebelow.com/ma/framingham/1-worcester-rd,-71.3935719,42.3023833,framingham,ma
Holyoke Mall,null,14132000019,"50 Holyoke St. Space C334 Holyoke, Massachusetts 01040 US",https://locations.fivebelow.com/ma/holyoke/50-holyoke-st-space-c334,-72.64136762883604,42.167607341203315,holyoke,ma
Highland Commons,null,19785675806,"30 Highland Commons East Hudson, Massachusetts 01749 US",https://locations.fivebelow.com/ma/hudson/30-highland-commons-east,-71.594932,42.391975,hudson,ma
Capetown Plaza,null,15087905748,"790 Iyanough Road Hyannis, Massachusetts 02601 US",https://locations.fivebelow.com/ma/hyannis/790-iyanough-road,-70.29296562334952,41.6691216551523,hyannis,ma
Water Tower Plaza,null,19784663417,"56 Watertower Plaza Leominster, Massachusetts 01453 US",https://locations.fivebelow.com/ma/leominster/56-watertower-plaza,-71.75670154232785,42.54235371430698,leominster,ma
Meadow Brook Center,null,19784532989,"199 Plain St Lowell, Massachusetts 01852 US",https://locations.fivebelow.com/ma/lowell/199-plain-st,-71.3177694110451,42.621925815700905,lowell,ma
Mansfield Crossing,null,15083391832,"280 School Street Mansfield, Massachusetts 02048 US",https://locations.fivebelow.com/ma/mansfield/280-school-street,-71.2264131,42.0125297,mansfield,ma
"225 Boston Post Rd West, Marlborough",null,15084923896,"225 Boston Post Rd West Marlborough, Massachusetts 01752 US",https://locations.fivebelow.com/ma/marlborough/225-boston-post-rd-west,-71.59252231158513,42.339633765627795,marlborough,ma
North Attleboro,null,15086992937,"1250 S Washington Street North Attleboro, Massachusetts 02760 US",https://locations.fivebelow.com/ma/north-attleboro/1250-s-washington-street,-71.34857021962841,41.93952283299763,north-attleboro,ma
Berkshire Crossing,null,14134422082,"555 Hubbard Avenue Pittsfield, Massachusetts 01201 US",https://locations.fivebelow.com/ma/pittsfield/555-hubbard-avenue,-73.1963444,42.4656145,pittsfield,ma
Colony Place,null,15082314144,"170 Colony Place Plymouth, Massachusetts 02360 US",https://locations.fivebelow.com/ma/plymouth/170-colony-place,-70.712606,41.9543669,plymouth,ma
Shaw's Plaza,null,15085389034,"266 New State Highway Unit 17 Raynham, Massachusetts 02767 US",https://locations.fivebelow.com/ma/raynham/266-new-state-highway,-71.05255122153473,41.90667326179361,raynham,ma
Saugus,null,17812314789,"444 Broadway Saugus, Massachusetts 01906 US",https://locations.fivebelow.com/ma/saugus/444-broadway,-71.02104372023774,42.479588512849794,saugus,ma
White City Shopping Center,null,15088413894,"20-50 Boston Turnpike Suite B-2 Shrewsbury, Massachusetts 01545 US",https://locations.fivebelow.com/ma/shrewsbury/20-50-boston-turnpike,-71.75261477424623,42.272651878025776,shrewsbury,ma
Redstone Shopping Center,null,17812080978,"99B Main St. Stoneham, Massachusetts 02180 US",https://locations.fivebelow.com/ma/stoneham/99b-main-st,-71.10221971435436,42.49636178665701,stoneham,ma
RK Plaza,null,17813444786,"1334 Park Street Stoughton, Massachusetts 02072 US",https://locations.fivebelow.com/ma/stoughton/1334-park-street,-71.06474177536518,42.102395771440385,stoughton,ma
The Center at Hobbes Brook,null,15086652065,"100 Charlton Rd. Sturbridge, Massachusetts 01566 US",https://locations.fivebelow.com/ma/sturbridge/100-charlton-rd,-72.05852300531377,42.12671161033276,sturbridge,ma
Walpole Mall,null,15084926091,"70 Providence Hwy Suite #: A-60 Walpole, Massachusetts 02032 US",https://locations.fivebelow.com/ma/walpole/70-providence-hwy,-71.20169430482431,42.15557450649514,walpole,ma
Riverdale Shops,null,14137371928,"935 Riverdale Street West Springfield, Massachusetts 01089 US",https://locations.fivebelow.com/ma/west-springfield/935-riverdale-street,-72.6223006,42.1288246,west-springfield,ma
Westgate Plaza,null,14134096158,"267 E Main St. Westfield, Massachusetts 01085 US",https://locations.fivebelow.com/ma/westfield/267-e-main-st,-72.72981,42.113041,westfield,ma
University Station,null,17813849175,"275 University Ave Suite B304 Westwood, Massachusetts 02090 US",https://locations.fivebelow.com/ma/westwood/275-university-ave,-71.15556145070624,42.202556892106045,westwood,ma
